station_id,name,lat,lon,capacity,stationCode,nbMecha,nbElec,nbdocklibre,last_reported
213688169,Benjamin Godard - Victor Hugo,48.865983,2.275725,35,16107,2,1,31,1689968830
653222953,Mairie de Rosny-sous-Bois,48.871256519012,2.4865807592869,30,31104,4,11,11,1689969399
36255,Toudouze - Clauzel,48.87929591733507,2.3373600840568547,21,9020,4,3,13,1689969285
37815204,Mairie du 12ème,48.840855311763,2.3875549435616,30,12109,25,4,1,1689969380
17486274358,Jean Rostand - Paul Vaillant Couturier,48.908168131015,2.4530601033354,0,30002,0,0,0,1680089757
251039991,Cassini - Denfert-Rochereau,48.837525839067,2.3360354080796,25,14111,2,2,21,1689969385
85002689,Jourdan - Stade Charléty,48.819428333369,2.3433353751898,60,14014,2,3,53,1689969404
2515829865,Basilique,48.93626891059109,2.3588666820200914,22,32017,8,3,8,1689969183
516709288,Charonne - Robert et Sonia Delaunay,48.855907555969,2.3925706744194,20,11104,1,2,17,1689969319
120827885,Messine - Place Du Pérou,48.875448033960744,2.315508019010038,12,8026,1,0,11,1689969049
66491398,Le Brun - Gobelins,48.835092787824,2.3534681351338,48,13007,8,3,37,1689969413
37874517,Saint-Sulpice,48.85165383178419,2.3308077827095985,21,6003,6,0,15,1689969149
17278902806,Rouget de L'isle - Watteau,48.778192750803,2.3963020229163,0,44015,0,0,0,1675935337
210403080,Lacépède - Monge,48.84389286531899,2.3519663885235786,23,5110,5,8,8,1689969174
210561800,Saint-Romain - Cherche-Midi,48.84708159081946,2.321374788880348,17,6108,2,2,12,1689969365
209063434,André Karman - République,48.91039875761846,2.3851355910301213,31,33006,4,11,14,1689969290
94555589,Pierre et Marie Curie - Maurice Thorez,48.81580226360801,2.376804985105991,27,42016,2,1,23,1689969389
244498842,Bois de Vincennes - Gare,48.836022242886884,2.4708339950830287,50,41301,11,6,31,1689969232
210405211,Beaux-Arts - Bonaparte,48.856451985395786,2.334851883351803,20,6021,3,1,14,1689969408
43195240,Silly - Galliéni,48.835583838706,2.2325500845909,25,21010,7,1,17,1689969338
501862076,Place Nelson Mandela ,48.862090937689715,2.196576297283173,22,25006,0,7,15,1689969343
207633746,Grande Armée - Brunel,48.876116,2.288124,62,17038,1,11,47,1689969367
16560752067,Bracion - Périphérique,48.826103771275,2.3004549373748,30,15202,0,1,29,1689968890
210566542,Square Boucicaut,48.851296433665276,2.325061820447445,60,7003,3,2,51,1689969132
210565680,Vaneau - Sèvres,48.84856323305935,2.3204218259345537,35,7002,6,1,22,1689969407
85043758,Guersant - Gouvion-Saint-Cyr,48.88287775178599,2.287667370814871,36,17041,0,1,35,1689969227
54000559,Jouffroy d'Abbans - Wagram,48.881973298352,2.301132157445,40,17026,0,1,37,1689969327
210397939,Thouin - Cardinal Lemoine,48.84504716661511,2.3494647851273465,17,5016,0,12,5,1689969351
82405965,Froment - Bréguet,48.8570414504784,2.37289470306807,43,11025,20,13,9,1689969196
213682736,Morillons - Dantzig,48.83310149953933,2.299380004405976,52,15047,3,1,48,1689968957
128986726,Boétie - Ponthieu,48.871417284355,2.3076787590981,33,8050,1,2,28,1689968927
54000581,Croulebarde - Corvisart,48.830981659316855,2.3481646925210953,34,13101,6,3,25,1689969015
13105968,Le Brix et Mesmin - Jourdan,48.82234096593411,2.327861653302471,21,14108,0,2,19,1689969373
653208733,Romainville - Vaillant-Couturier,48.86785,2.446748,38,31024,1,1,35,1689969360
27415224,Bir Hakeim,48.853844054333514,2.289705348222022,33,15026,2,2,26,1689969076
907054879,Liberté - Vert-de-Maisons,48.79014780960843,2.43286281824112,20,47007,15,4,1,1689969360
123095125,Alibert - Jemmapes,48.871044051984,2.3661044619878,60,10013,19,13,23,1689969360
129094535,Porte de Saint-Ouen - Bessières,48.89792240854517,2.32851451022192,42,17044,11,8,21,1689969297
54000612,Cambrai - Benjamin Constant,48.89594736851349,2.381133802246315,43,19033,19,11,11,1689969061
80101533,Chazelles - Courcelles ,48.879406604954,2.3034455627202988,35,17025,0,1,31,1689969229
17486876370,Moulin de Pierre - Abbé Grégoire,48.822036188382,2.2754641655975,20,21326,0,2,18,1689969226
599135701,Ramponeau - Belleville,48.871031137596,2.379056852114,44,20143,7,14,22,1689969385
102747146,Lagny - Victor Basch,48.84884147189881,2.426325418925233,26,43002,3,5,16,1689969253
2515403527,Saint-Cloud - Hippodrome,48.85772148887421,2.2549109905958176,30,16138,9,4,17,1689969368
653132534,Louis Lejeune - Barbès,48.81807418981508,2.3267009854316716,25,21216,1,5,19,1689968949
506455295,Général Martial Valin - Pont du Garigliano,48.83823094269141,2.270506024360657,16,15068,2,0,14,1689969336
1057149522,Rond-point du Dr Albert Schweitzer,48.78980918988166,2.3143940046429634,22,22207,11,6,5,1689969403
210567545,Raspail - Varenne,48.853147816545,2.3263905197382,18,7004,0,2,16,1689968972
653197324,Théâtre des Amandiers - Palais des sports,48.892648526839,2.2136941552162,23,92002,5,4,13,1689969383
2515085147,Italie - Tolbiac,48.82557229464416,2.3576171323657036,21,13030,1,6,14,1689969214
210408693,Vaugirard - Monsieur le Prince,48.848951441614,2.3411329463124,26,6029,2,2,18,1689969049
42950839,Serrurier,48.8804934032465,2.39806417375803,18,19027,0,0,18,1689969399
14813797734,Raspail Barbès,48.8529945,2.4247387,28,31028,3,7,17,1689969363
88230992,De Toqueville - Terrasse,48.882428,2.314002,30,17048,1,2,25,1689968983
499303158,Jules Guesde - Pont du Port à l'Anglais,48.79628807093802,2.417212128639221,30,44017,20,3,6,1689969405
27415302,Michel-Ange - Parent de Rosan,48.840579923690115,2.2584119439125065,26,16118,5,2,16,1689969336
27414512,Caire - Dussoubs,48.86785342111862,2.349364310503006,40,2017,4,1,33,1689969293
210580039,Tour d'Auvergne - Rodier,48.879161,2.343698,17,9008,2,2,13,1689969232
49474389,Artois - Berri,48.87393521240818,2.3064258322119713,23,8103,2,3,17,1689969329
128940135,Marceau - Chaillot,48.868834023334,2.2986030816809,21,8048,0,0,20,1689968860
35149611,Liard - Amiral Mouchez,48.8214169,2.342167,14,14013,2,2,10,1689969219
1057296253,Regnault - Patay,48.82435782216384,2.377065159380436,63,13118,33,6,14,1689969388
129107656,Félix Ziem - Armand Gauthier,48.88949630486821,2.333393658804396,25,18111,0,5,19,1689969408
210574471,Abbeville - Faubourg Poissonnière,48.879223,2.349147,14,9002,3,1,9,1689969161
1057228658,Youri Gagarine - Karl Marx,48.78448485079149,2.35908430069685,22,48003,0,1,19,1689969285
230873471,Octave Feuillet - Albéric Magnard,48.86106902949534,2.2730283066630363,21,16110,0,0,20,1689969121
507934805,Ney - Porte de Clignancourt ,48.8978867,2.3458001,25,18134,2,2,21,1689969284
205047993,Edgar Quinet - Raspail,48.83940266673835,2.32971478253603,46,14002,10,6,27,1689969374
39799329,Faubourg Montmartre - La Fayette,48.87525454905335,2.340853661298752,35,9014,8,3,19,1689969410
129164969,Place Jean-Spire-Lemaître,48.8468428626593,2.452062070369721,50,43009,2,11,35,1689969409
128989986,Place Georges Guillaumin,48.874750203956566,2.301771435325988,29,8053,0,2,24,1689969294
129004826,Bellefond - Poissonnière,48.87759897050706,2.348463758826256,17,9001,1,0,15,1689969393
518825709,Jean Oestreicher - Porte de Champerret,48.88655580065981,2.288640439510346,21,17032,0,1,18,1689969367
128930462,Square Louis XVI,48.87320440102894,2.323658830743138,29,8016,1,0,25,1689969006
911767210,Alexandre Parodi - Quai de Valmy,48.87935941942529,2.366596162319184,24,10162,10,9,3,1689969395
54000565,Granges aux Belles,48.8761373390584,2.3680844979417,27,10115,4,0,21,1689969088
210586093,Dunkerque - Rocroy,48.880726,2.351464,24,10029,0,0,23,1689969317
7254,Gay Lussac - Saint-Jacques,48.844730256132095,2.341923944866407,24,5005,1,2,21,1689969416
369644630,Gare de l'Est - Faubourg-Saint-Martin,48.875642647477,2.3594588041306,32,10161,6,0,24,1689969403
214114469,Gare de Nogent-le-Perreux,48.83842553348809,2.493693307042122,32,41303,9,16,2,1689969177
55927887,Gabriel Lamé,48.8351212784276,2.385534569621086,36,12031,19,12,2,1689969361
210570888,Las Cases - Bourgogne,48.859091104741,2.3185685276985,22,7011,1,1,20,1689969403
128887067,Ségur - d'Estrées,48.851419978983,2.3097044974566,19,7018,1,4,14,1689969366
72765603,Boulangers - Cardinal Lemoine,48.8462904,2.3521495,20,5022,12,1,7,1689969020
210582921,Boudreau - Auber,48.87219,2.329423,14,9106,1,0,13,1689969348
16659953198,Verger - Colonel Guichard,48.816376985087,2.2670380088932,29,21328,1,3,24,1689969293
17486828694,Charlot - Stade Gabriel Voisin,48.827228120536,2.268122527474,31,21323,24,2,4,1689969403
129050965,Place de la République - Voltaire,48.866830968942,2.3654810339212,19,11046,6,5,4,1689969416
16659964929,Arsène Houssaye - Friedland,48.874510616163,2.2994716674148,29,8201,0,2,25,1689969386
43255030,Pereire - Ternes,48.87973954830735,2.288012132048607,48,17040,0,2,46,1689969313
129025451,Douai - Bruxelles,48.88320784122797,2.3308449949028507,27,9038,0,3,24,1689969401
128920403,Gare Saint-Lazare - Isly,48.874777677621296,2.326515804784655,27,8009,2,1,20,1689969116
323616530,Quai de l'Horloge - Pont Neuf,48.857058739111,2.3417982839439,17,1001,13,3,1,1689969309
208795867,Ambroise Rendu - Porte Brunet,48.883667,2.395733,17,19105,0,3,12,1689969387
1062192012,Gare Rosny-Bois-Perrier,48.88115023337061,2.480436824262142,36,31103,10,9,14,1689969408
521393180,Porte Pouchet-Bessières,48.8978765,2.3230632,23,17008,0,1,22,1689969277
576188379,Vigée-Lebrun - Anselme Payen,48.838683941628375,2.3110422492027287,24,15112,1,0,22,1689969393
128915891,Octave Gréard - Tour Eiffel,48.856502977696,2.2931787543289,33,7025,9,1,22,1689969394
6296,Institut de France,48.857615678565,2.3358313530377,17,6001,2,0,14,1689969413
82567101,Château - République,48.862923800596,2.4155035614967,26,31706,2,1,19,1689969408
457813746,Henri Barbusse - Stalingrad,48.814183748660554,2.2872862592339516,16,22409,0,5,9,1689969019
128882438,Institut du Monde Arabe - Saint-Germain,48.849063299501,2.3558086529374,40,5020,33,3,2,1689969378
50191171,Thionville - Ourcq,48.88917613743794,2.3833653330802917,24,19015,17,7,0,1689969414
129014600,Rossini - Laffitte,48.87334627510507,2.337980867701675,33,9022,1,2,27,1689969329
3906153622,Argenteuil - Voltaire,48.91864865955558,2.2814112156629562,16,26003,9,6,1,1689969207
129087587,Legendre - Clichy,48.88896161855884,2.322528975094376,40,17004,3,3,33,1689969174
213693511,Quai de la Seine,48.884492238407525,2.3703941702842717,24,19003,11,10,1,1689969280
82379648,Lisbonne - Monceau,48.87745567681383,2.309694221419506,33,8036,0,0,33,1689968893
66491397,Gare de Lyon - Place Louis Armand,48.845515089794,2.3726498446286,60,12151,44,13,0,1689969393
230877798,Chartres - La Charbonnière,48.8847601,2.3534657,34,18107,1,1,31,1689969363
2515995748,Pesaro - Préfecture,48.89577046284005,2.223908342421055,22,92007,3,1,18,1689968970
27363162,Ranelagh - Mozart,48.8554439,2.2704418,23,16026,1,5,16,1689969349
129021753,Moncey - Blanche,48.88006587474148,2.3310810327529907,17,9028,1,0,16,1689969141
210740080,Gare du Nord - Hôpital Lariboisière,48.881949,2.352339,49,10107,0,0,49,1689969111
3906094706,Redoute - Les Courtilles,48.929867194519,2.2836696356535,40,26002,23,15,1,1689969409
80216231,Belidor - Gouvion-Saint-Cyr,48.88022154052015,2.2854680567979813,39,17043,1,1,36,1689969276
336511521,Place de Rhin et Danube,48.88192765861766,2.392586767673493,17,19026,0,4,12,1689969407
82562556,Exelmans - Versailles,48.84097491091973,2.264390252530575,49,16039,20,5,24,1689969379
129048000,Saint-Maur - Roquette,48.858688774062955,2.383553994571467,46,11023,0,0,46,1689968912
1062250686,11 Novembre 1918 - 8 Mai 1945,48.80889533774377,2.5382421165704727,36,45003,11,16,9,1689969393
129043651,Roquette - Thiéré,48.85507930579506,2.3733686318721463,23,11002,12,7,2,1689969289
126050442,Pereire - Rennequin,48.88364782887555,2.2952447086572647,23,17030,1,4,18,1689969320
27363489,Claude Decaen - Cannebière,48.83761417037952,2.397253782195704,27,12111,3,9,13,1689969319
39296638,Berri - Haussmann,48.874746047357135,2.3082953318953514,35,8034,1,0,33,1689969195
813544903,Amelot - Saint-Sébastien,48.86114216276092,2.367799618107727,30,11047,9,8,11,1689969414
205938683,Delphine Seyrig - Général Leclerc,48.893923963057865,2.39790290594101,53,19043,8,5,40,1689969276
210399835,Panthéon - Valette,48.84702057165222,2.3464982619671075,39,5032,0,0,39,1689969414
1057324291,Cimetière de Montrouge,48.822009,2.322188699,58,14020,0,2,55,1689969333
102324803,Pyrénées - Emmery,48.872010281270974,2.392039597034455,40,20042,1,0,39,1689969084
101763163,Desaix - Edgar Faure,48.852804604940296,2.293077029857222,12,15067,3,1,3,1689969368
653133605,Gare RER - Canadiens,48.81995307955795,2.464176752459464,45,43401,28,4,3,1689969279
27414578,Notre-Dame-des-Champs - Stanislas,48.84479928858768,2.329337755887181,19,6006,2,6,10,1689969328
54000569,Saint-Ambroise - Parmentier,48.862147844548,2.3772348091006,38,11027,9,2,22,1689969187
508042092,Pyramide - Ecole du Breuil ,48.82237977153955,2.4586871266365056,34,12128,23,8,2,1689969260
42603855,Liège - Moscou,48.8795431,2.3264628,17,8010,0,0,14,1689969379
818302209,Mairie de Montreuil,48.86131452758348,2.440614402294159,52,31022,0,2,46,1689969408
13718041,Square Simon Bolivar,48.8750898883217,2.3826304078102116,24,19101,0,6,15,1689969417
265464297,Schoelcher - Raspail,48.83681733526843,2.3312794080411474,50,14003,3,5,41,1689969364
1057392676,Rouget de Lisle,48.764615483395254,2.4071189761161804,35,46002,15,9,7,1689969374
102309973,Cimetière de Montmartre,48.886472466142,2.3328901827335,43,18003,3,4,35,1689969181
532054446,Richard Lenoir - Republique,48.8667175,2.3692541,58,11113,4,2,49,1689969391
129034587,Récollets - Square Villemin,48.875034655883944,2.359801238597928,17,10016,8,2,7,1689969405
261987383,Place Du Général De Gaulle,48.8687591,2.4329931,26,31009,0,1,23,1689969121
314829539,Charles de Gaulle - Beauté,48.83649602312711,2.479562651149885,49,41302,1,9,37,1689969340
586539770,Marne - Germain Dardan,48.81154270401601,2.303070724010468,22,21212,0,0,22,1689969117
37815993,Mutualité,48.848225572724,2.3502873256803,37,5018,16,3,15,1689969324
583539396,Anatole France - President Roosevelt,48.9155156,2.3814103,29,33017,12,6,8,1689969409
101753100,Henry Farman,48.83372430280548,2.2713854536414146,16,15042,3,1,12,1689969095
27415466,Jourdain - Place des Grandes Rigoles,48.87403113727167,2.38959476351738,22,20112,0,0,22,1689969053
52393,Grands Moulins de Pantin,48.89738369720229,2.3959985375404362,50,19044,13,33,3,1689969402
81081358,Pajol - Place Herbert,48.8927825,2.3635598,39,18011,1,1,32,1689969235
66491385,Fontenay - Libération,48.84780306364685,2.445141971111298,25,43008,7,13,5,1689969310
209057581,Gabriel Péri - Francisco Ferrer,48.88633710236977,2.407338917255402,18,33102,3,7,7,1689969404
27363187,Place Albert Kahn,48.89579697978,2.3455855841349,0,18031,0,0,0,1688374764
3906335682,Roger Salengro - Fontainebleau,48.814548697325,2.3611663654447,25,42706,8,2,11,1689969390
17581042048,Place de la Porte de Champeret,48.886062068226,2.2917001576821,0,17203,0,0,0,1682405753
535500589,Hôpital Européen Georges Pompidou ,48.83769531916335,2.275374233722687,64,15104,15,3,46,1689969265
597245295,Concorde - Stalingrad,48.7985844,2.3821302,35,44006,21,10,3,1689969269
213684314,Fédération - Suffren,48.852828153442,2.2978776320815,25,15105,7,0,16,1689968869
235513935,Carducci - Place Hannah Arendt,48.877436681515796,2.3860743641853337,27,19120,0,2,24,1689969384
27206194,Saint-Jacques - Val de Grâce,48.8417514,2.3413893,19,5004,0,3,12,1689969396
102323152,Manin - Carrières d'Amérique,48.88467214209463,2.3919698596000676,20,19103,0,0,20,1689969111
828134511,Porte de Vanves,48.828012849445,2.3056878894567,32,14138,2,4,25,1689969140
129060764,Victor Hugo - Jeanne Jugan,48.843949064031825,2.415081394834419,28,12114,8,3,14,1689969379
210749865,Port-Royal - Hôpital du Val-de-Grâce,48.837668272811,2.3448138346607,18,13001,2,5,10,1689968981
586649404,Conservatoire de Musique,48.77093586667601,2.4034014344215398,25,46003,18,4,2,1689969404
596813170,Cimetière de Fontenay-sous-Bois,48.84706173362218,2.4787822365760808,15,41209,0,3,12,1689969272
596872103,Lucie Aubrac - Fort,48.818144834008976,2.271184623241425,30,21312,0,4,25,1689969240
271426439,Buisson Saint-Louis - Saint-Maur,48.87174684930295,2.3722528328789854,19,10024,3,8,5,1689969292
66491389,Place de la Reine Astrid,48.864920982538,2.3025491823859,54,8045,3,5,43,1689969293
76199461,Championnet - Vauvenargues,48.89401874744574,2.3319872841238976,33,18028,3,3,26,1689969395
230952057,Place Marcel Cachin,48.81411442356866,2.39090770483017,32,42014,26,2,2,1689969355
88140066,Rocher - Laborde,48.87590240712654,2.322616316378116,65,8017,2,0,60,1689969215
213683101,Lecourbe - Jean Maridor,48.83796366147599,2.2877392172813416,19,15054,12,3,2,1689969207
213684750,Grenelle - Violet,48.84993035512154,2.294612042605877,35,15106,2,1,29,1689969360
129067920,Mouton Duvernet - Général Leclerc,48.831632518292565,2.3293121159076686,39,14008,1,2,32,1689969337
2515049357,Erasme - Ulm,48.84264375274712,2.3445946723222733,24,5124,1,2,21,1689969393
27364743,Marc Sangnier - Porte de Vanves,48.825218683556734,2.3107116669416428,21,14106,3,0,18,1689969040
102314792,Etienne Jodelle - Saint Ouen,48.88794016394694,2.326124420314341,33,18046,1,1,28,1689969248
35447568,Guy Môquet - Etienne Dolet,48.81527009991819,2.298078276995073,23,22406,5,4,12,1689969411
27415736,Jean Jaurès - Presles,48.90713441498779,2.396005728053061,30,35002,7,4,18,1689969186
583178525,Boissière - Etienne Dolet,48.876111,2.4677312,21,31102,2,17,0,1689969395
2514995690,Chabanais - Petits Champs,48.86703740186721,2.336716018617153,30,2111,4,1,24,1689969108
66491402,Marcadet - Barbès,48.890451120965,2.3490573929687,37,18022,3,5,28,1689969397
82387816,Bertie Albrecht - Hoche,48.87614039826388,2.301303138307601,32,8054,1,1,30,1689968987
213685090,Cevennes - Bergers,48.84240765130395,2.281037718057633,29,15109,17,2,9,1689969365
301841024,Molière - République,48.81111581390707,2.3145738624448158,30,21209,1,4,23,1689969195
213679512,Sibelle - Alésia,48.826701758539215,2.3384983465075493,25,14012,2,8,14,1689969215
85147829,Hôtel de Ville de Boulogne Billancourt,48.83495885166784,2.2416803240776066,26,21005,10,7,7,1689969383
588452142,Hoche - Jean Lolive,48.89110239200789,2.402843534946442,24,35010,0,1,20,1689969406
129038848,Enghien - Faubourg Poissonnière,48.872420063053,2.3483952362828,33,10042,6,3,24,1689969274
213681356,David Weill - Parc Montsouris,48.821092374256104,2.333725690841675,22,14124,0,9,13,1689969325
2515351285,Saint Lambert - Blomet,48.83659148147257,2.2930556908249855,27,15133,15,12,0,1689969281
213685514,Place Robert Guillemard,48.836191728066666,2.2811267160086417,24,15110,17,1,6,1689969418
102329800,Marcelin Berthelot,48.8415473058801,2.233161628246308,27,21006,22,4,1,1689969415
54000625,Repos - Cimetière du Père Lachaise,48.859358523593,2.3896131366845,33,20131,0,1,32,1689969278
572566600,Edouard Tremblay - Julian Grimaux,48.781383825117,2.3723508417606,30,44013,1,3,25,1689969342
213911772,François Debergue - Croix de Chavaux,48.857421708072074,2.437578141689301,57,31008,3,2,51,1689969376
129132870,Nationale - Place Jules Guesde,48.82753962462998,2.2416052222251897,23,21015,2,2,19,1689969263
620403530,Gabriel Péri - Danielle Casanova,48.790114,2.4025777,20,44003,14,4,2,1689969294
66491378,Lakanal - Commerce,48.84442462786544,2.294059172272682,53,15034,23,1,27,1689969406
631773910,Carnot - Pâquerettes,48.79592939432515,2.4261841177940373,26,41404,16,4,5,1689969408
1765749389,Karl Marx,48.784527937293184,2.3646667979455587,16,48010,0,2,14,1689969406
611152693,Tertres - Fontaine,48.787553654715644,2.306235730648041,28,22203,0,6,19,1689969346
235241110,Gare Rer de Fontenay sous Bois,48.8436279,2.4630465,61,41202,21,8,32,1689969384
613737748,Raspail - Manufacture des Oeillets,48.8094458,2.3903009,32,42021,21,6,5,1689969349
41498023,Oberkampf - République,48.865316087070475,2.3761147849099955,24,11030,6,9,7,1689969110
1062671597,Cossonnerie - Sébastopol,48.86132665908402,2.349419631063938,24,1119,16,5,4,1689969416
213945171,Noisy le Sec - Jean-Baptiste Clément,48.87451538963655,2.415283620357514,22,31708,1,6,10,1689969218
463297497,Marcelle - Thalie,48.8835462,2.4137883,20,35020,0,2,16,1689969275
35908,Cujas - Saint-Michel,48.848191348584,2.341831654854,19,5106,4,0,13,1689969267
213875650,Henri Ste-Claire Déville - Paul Héroult,48.892663,2.172411,24,25003,8,3,13,1689969150
245187072,Louis Lumière - Porte de Bagnolet,48.86431136000005,2.4105210229754443,20,20115,0,1,18,1689969122
129144878,Paris - Emile Zola,48.854898095789295,2.4186685681343083,30,31003,0,1,27,1689969246
27415665,Jean Jaurès - Salvador Allende,48.821475594736775,2.3026576638221745,43,22402,1,4,36,1689969117
593238093,Victoire - Chaussée d'Antin,48.875065791004396,2.3316738009452824,24,9116,1,0,21,1689969414
102331767,Victor Hugo - Galliéni,48.83802015441127,2.2460845112800603,34,21008,23,7,3,1689969396
37791,Richard Lenoir - Jean-Pierre Timbaud,48.86580427668637,2.369337074966926,36,11039,7,6,21,1689969392
50156117,Legendre - Dulong,48.885325169402904,2.316423766314984,23,17013,3,1,18,1689969299
15462236,Galilée - Kléber,48.86741186571367,2.290781380114821,32,16008,0,0,31,1689965988
101024234,Quai Panhard et Levassor,48.82837482809675,2.384273745805574,57,13050,30,3,20,1689969314
210744286,Chemin Vert - Saint-Maur,48.86112461407359,2.381299026310444,45,11026,13,4,26,1689969416
213992316,Square du Théâtre du Garde-Chasse,48.881287375060616,2.420119643211365,50,32604,0,0,49,1689969265
213694482,Botzaris - Parc des Buttes Chaumont,48.877951,2.381464,20,19024,1,11,8,1689969321
235599121,Général De Gaulle - Alouette,48.839109,2.4175664,26,41601,4,4,17,1689969399
129011497,Rochechouart lamartine,48.876719895109,2.344393021853951,24,9010,1,2,19,1689969348
101743895,Joseph Liouville - Croix Nivert,48.844835471244416,2.297508493065834,64,15021,16,2,45,1689969246
213691848,Place Madeleine Daniélou,48.883498,2.282015,42,17105,4,3,35,1689969028
210396518,Estrapade - Ulm,48.84512772828039,2.3454568170361734,16,5012,0,3,12,1689969350
213683992,Cauchy - Cévennes,48.8433725710224,2.275132834911347,51,15103,33,2,11,1689969175
54000601,Jean-François Lépine - Stephenson,48.88611466796807,2.356855627529275,22,18009,0,0,19,1689969069
27362896,Beffroy,48.886591074487995,2.261394560337067,26,22003,1,2,22,1689969384
213687140,Molitor - Chardon-Lagache,48.84520880183234,2.2656840831041336,34,16038,2,3,29,1689969323
97677210,Parmentier - République,48.8644954,2.3750124,50,11105,5,4,39,1689969393
213680917,Abbé Carton - Plantes,48.827673823165846,2.320918142795563,25,14110,0,2,23,1689969043
1057774603,Marie-Georges Picquart - Pereire,48.88863669349711,2.3111706599593163,32,17125,4,11,16,1689969402
213688462,Sablons - Georges Mandel,48.863875,2.28189,38,16108,3,13,21,1689969413
102749572,Gare RER de Vincennes,48.847563015126106,2.433383166790009,51,43005,7,1,42,1689969372
39254792,Mairie du 11ème,48.858925,2.3789759,51,11024,20,9,17,1689969358
210573120,Hoche - Tilsitt,48.874836457837,2.2971323132515,33,8057,2,0,30,1689969265
390212609,Théophile Gautier - François Millet,48.85034821320644,2.273029983043671,30,16136,6,5,17,1689969249
549876068,Villette - Belleville,48.8726877314,2.376461327076,48,19032,18,22,6,1689969348
63498079,Marché Secrétan,48.88125496379482,2.373463287949562,26,19022,2,15,7,1689969324
102338493,Larmeroux - Baudelaire,48.816939911292,2.2809894804846,29,21701,5,9,15,1689969281
875078767,Lieutenant Chauré - Etienne Marey,48.86746195408435,2.405970990657807,20,20134,0,5,14,1689969383
1558958733,Arche - Léonard de Vinci,48.89790972494496,2.2383723043644914,28,24001,1,0,27,1689969196
2515802454,Charles de Gaulle - Sablonville,48.87991924860035,2.2763770446181297,26,22016,4,0,22,1689969192
648227675,Auguste Cain - Jean Moulin,48.82577028927573,2.3210415244102482,40,14136,4,3,32,1689969289
42566291,Miromesnil - La Boétie,48.87372241291653,2.315848097205162,35,8025,2,4,22,1689969339
1062206433,Chemin Vert - Fraternité,48.877141208359035,2.4461565166711807,20,32302,1,2,16,1689969329
129032910,Marseille - Beaurepaire,48.871624306962985,2.3639265082738348,55,10014,5,7,41,1689969393
54000577,Arago - Glacière,48.83486054775774,2.3445770524322067,27,13002,12,1,11,1689969273
54001024,Parmentier - Abel Rabaud,48.86921273836114,2.371688821240712,52,11035,0,3,47,1689969227
94250567,Mairie d'Ivry-sur-Seine,48.81057120969284,2.3842826485633855,53,42010,11,3,35,1689969380
129078200,Parc Georges Brassens - Brancion,48.83227829269761,2.3022570088505745,29,15046,4,3,22,1689969088
649888071,Place Paul Eluard,48.7672039733195,2.4144977331161503,19,46001,13,3,1,1689969248
82563707,Exelmans - Michel-Ange,48.84309486651855,2.2597770800669053,33,16040,7,1,24,1689969189
129143598,Pierret - Madrid,48.882976576876565,2.260125767248034,28,22006,0,0,26,1689968849
213690847,Reims - Raymond Pitet,48.8888,2.296319,37,17028,0,0,33,1689969184
102333275,Saint-Vincent - Verdun,48.819211549234495,2.254007756710053,34,21301,24,1,8,1689969354
640629438,Aristide Briand - Gare de Bagneux,48.79387269664978,2.321148812770844,22,42302,6,9,6,1689969369
82328045,Victoria - Place du Chatelet,48.857992591527,2.3469167947769,22,1002,15,5,0,1689969117
27363362,Seine - Flandre,48.886785741479684,2.3746193200349808,19,19029,6,5,8,1689969327
237624030,Mathurins - Auber,48.872988840744,2.3294984212276,36,9032,1,0,32,1689969347
6399,Hautpoul - Jean Jaurès,48.886393679436,2.3865414544355,32,19016,6,12,14,1689969373
213957917,Wilson - Métallurgie,48.909423010092326,2.3584435880184174,28,32003,2,4,21,1689969375
54000626,Madame de Sanzillon - Mozart,48.90379820774301,2.3187401890754704,22,21104,5,3,11,1689969316
210746090,Grand Prieuré - Crussol,48.864660627935,2.3692265531829,49,11042,20,6,20,1689969403
27414841,Square d'Anvers,48.882633484311,2.3448844062122,33,9005,2,8,23,1689969407
82253759,Mairie du 7ème,48.8577967,2.3192664,27,7102,1,1,25,1689969019
82457375,Volontaire - Lecourbe,48.8435137879902,2.3065522313117985,31,15013,7,3,19,1689969047
54000609,Laumière - Petit,48.88467368538326,2.380039058625698,34,19013,10,11,10,1689969344
647826568,Saint-Germain - Thenard,48.850571,2.3471015,31,5123,15,6,6,1689969338
213702608,Boyer - Ménilmontant,48.868895162679,2.3919824145635,19,20121,0,0,0,1526882385
214134714,Gare Arcueil - Cachan,48.799824,2.328171,26,42301,16,3,6,1689969196
54000553,Marignan - Champs-Elysées,48.869495661232,2.3066138139003,35,8013,0,0,34,1689968997
214139374,Gare RER de Gentilly,48.814280450380224,2.3410347104072575,30,42504,1,5,23,1689969341
17174681330,Quai du docteur Dervaux,48.910482,2.297998,26,26013,14,0,9,1689969386
213700358,Villiers de l'Isle Adam - Pyrénées,48.867362,2.396222,20,20111,1,3,15,1689969297
559507144,Place Jean Ferrat,48.8184945213025,2.3744174838066106,25,42015,1,2,21,1689969236
653063170,Place de la Porte de Paris,48.93009363207303,2.3564037680625916,40,32016,0,3,37,1689969216
3906215030,Place Amédée Gordini - Lefebvre,48.83061737745,2.2920634208276,38,15201,6,2,29,1689969382
129151834,Stalingrad - Désiré Chevalier,48.85670169739857,2.445072233676911,42,31010,1,5,36,1689969349
237041013,Saint-Jacques - Soufflot,48.8465255,2.343099,0,5006,0,0,0,1528267334
213694069,Flandre - Alphonse Karr,48.89465,2.381868,26,19008,11,14,0,1689969317
653200142,Hôtel de Ville de Nanterre,48.892371898250424,2.205548956990242,38,92008,20,14,3,1689969394
650091839,Victor Hugo - Ecoles,48.80476007936134,2.4180373930262093,25,41402,22,0,2,1689969325
362869414,Hôpital Bégin,48.84571672113014,2.4272462725639348,26,43003,1,3,22,1689969381
55664548,Charonne - Faubourg Saint-Antoine,48.852191909696,2.3740932717919,34,11004,24,6,3,1689969285
100859941,Raspail - Bac,48.855628721101,2.3256602883339,52,7005,1,0,51,1689969242
49368561,Jules Ferry - Faubourg du Temple Paris,48.868397,2.3678933,58,11036,10,4,44,1689969399
42743053,Stephenson - Doudeauville,48.888537048944826,2.3561610281467438,36,18012,2,3,29,1689969396
49859500,Charenton - Diderot,48.846171461187,2.3793068155646,18,12009,16,1,0,1689969374
213699913,Place de l'Édit de Nantes,48.88879,2.3785,30,19125,11,13,4,1689969344
101740379,Boulard - Daguerre,48.83446472680611,2.3293386027216907,45,14036,1,0,43,1689969379
4329844165,Tristan Tzara -  Tchaïkovski,48.89490221746837,2.3648490384221077,33,18201,2,1,28,1689969376
468843711,Saint Georges - d'Aumale,48.87778639599673,2.337429821491241,23,9021,6,1,15,1689969396
378626842,Anatole France - Louise Michel,48.88873214926474,2.2881576418876652,50,23009,0,3,44,1689969152
27414945,Montgallet - Charenton,48.842647778701,2.3861649278137,16,12027,13,2,0,1689969364
376664868,Gaston Roussel - Commune de Paris,48.89432034553156,2.432552274419542,30,32303,1,4,24,1689969236
2515927759,Stalingrad - Germaine Tailleferre,48.80257200481316,2.3786691203713417,28,42029,7,10,10,1689968908
27071684,Porte de Vincennes,48.846454,2.415514,33,12115,11,8,14,1689969151
205955605,Bienfaisance - Place de Narvik,48.87660163459077,2.3129771277308464,36,8035,1,3,31,1689969286
933214552,Guynemer - Séverine,48.83091743371036,2.2790706530213356,26,21313,11,4,11,1689969296
39217683,Alfred Roll - Berthier,48.887808570529,2.3000952981763,28,17102,1,2,23,1689969128
353462947,Richard Wallace - Place du 8 Mai 1945,48.87866794788021,2.2420343756675725,30,28001,9,1,19,1689969363
1559700274,Square Gilbert Thomain,48.90717373809284,2.2695400938391685,20,26007,2,2,14,1689969061
66491370,Jacques Callot - Mazarine,48.85528017533187,2.337574325501919,28,6013,7,3,17,1689969332
213688824,Faustin Hélie - Desbordes-Valmore,48.859403,2.276522,33,16111,0,1,31,1689969187
66491404,Flandre - Riquet,48.888013281448,2.3737595955229,21,19005,4,8,6,1689969054
210090269,Jean Macé - Faidherbe,48.85337548426,2.3828620836139,63,11007,6,10,45,1689969402
82337423,Varenne,48.857202661803,2.3152771219611,47,7015,9,3,35,1689969296
66491393,Dupleix - du Guesclin,48.85147910413369,2.296709530055523,47,15025,9,2,35,1689969288
1062223873,Ancien Canal - Hélène Brion,48.89484799296163,2.4188338592648506,23,35018,15,5,3,1689969332
49085250,Departement - Pajol,48.886674849730184,2.3613611608743668,19,18110,1,1,14,1689969251
66491392,Parmentier - Hôpital Saint-Louis,48.871379874257,2.3698963836667,43,10113,2,2,39,1689969390
2515907297,Pasteur - Gambetta,48.84572797384512,2.4236011505126953,19,41606,1,1,16,1689969384
66491401,Fragonard - Porte de Clichy,48.894155633419,2.3143893107772,56,17011,11,5,38,1689969192
341388492,Place des Ternes.,48.878438631226516,2.297727763652802,46,17045,0,0,43,1689969398
985828965,Place de Verdun,48.8202823,2.473775,40,43402,35,4,0,1689969363
338762459,Edouard Poisson - Victor Hugo,48.91118557052621,2.379864752692811,30,33018,8,3,17,1689969403
323486248,Montgallet - Reuilly,48.844291,2.3896481,16,12013,4,4,7,1689969205
478952881,Boulets - Voltaire,48.85218705621,2.3890301585197,24,11009,4,3,16,1689969262
38263504,Place Jacques Madaule,48.823933787309,2.2606918215752,25,21305,4,0,19,1689969128
501318622,Montreuil - Gonnet,48.850500564921,2.3890856287864,24,11115,7,5,10,1689969398
2515855808,Madeleine Vionnet,48.902519074064,2.3740895837545,34,33019,2,3,31,1689969313
652120758,Place de la Porte de Châtillon,48.8242469,2.3186306,59,14021,7,5,47,1689969334
54000544,Jussieu - Fossés Saint-Bernard,48.84718551002347,2.3534858599305153,39,5021,25,12,1,1689969387
49403716,Commandant Rivière,48.872933,2.309796,27,8033,0,2,25,1689969386
470807791,Jardin d'Acclimatation,48.878772242510465,2.270772233605385,33,16121,1,0,32,1689968955
82445192,Gare Montparnasse - René Mouchotte,48.83920384329242,2.320883944630623,39,14117,14,19,4,1689969402
568135465,Paul Vaillant Couturier - Chaptal,48.893479576183,2.2775253653526,39,23001,0,0,38,1689969417
82450803,Square Cambronne,48.84756654526,2.3025691509247,59,15010,8,1,48,1689969082
214102967,Gare de Laplace,48.80893199114179,2.3349460959434514,43,41102,7,10,26,1689969131
54000597,Bayen - Pereire,48.881804409079656,2.2921088710427284,22,17037,4,4,14,1689969056
2515658032,Clignancourt - Sofia,48.88511992309783,2.34719488842051,19,18141,0,11,8,1689969390
210568512,Assemblée Nationale,48.861411014652,2.3201214185208,63,7009,3,4,53,1689968968
102319838,Quai de la Loire - Jean Jaurès,48.88339733854529,2.371074522980134,16,19004,1,7,5,1689969414
213691542,Porte Maillot - Pereire,48.877775,2.284444,0,17042,0,0,0,1526880702
652192395,Route de Sèvres - Porte de Bagatelle,48.87525984132485,2.249415814876557,66,16124,26,19,18,1689969396
82417874,Alexandre Dumas - Voltaire,48.852888670365,2.3891476408096,59,11102,4,6,44,1689969199
571923059,Bordier - Félix Faure,48.90390751882016,2.3830059170722966,48,33003,13,16,15,1689969386
54000635,Félix Faure - Sadi Carnot,48.90812110228388,2.378623187541962,33,33009,17,5,7,1689969367
66491405,Charonne - Avron,48.85160266522164,2.398403047037931,27,20043,11,8,5,1689969298
17992442278,Place du 8 Mai 1945,48.871552174017,2.2025031970585,0,25008,0,0,0,1689969335
1062179194,18 juin 1940 - Buzenval,48.868807,2.185428,25,25005,10,11,4,1689969174
1063017616,Mairie de La Garenne Colombes,48.90663823468682,2.24679596722126,22,22505,2,2,15,1689969289
378648513,Jean Colly - Tolbiac,48.827817291597846,2.3705490678548813,36,13045,18,5,11,1689969347
27278603,Porte de la Villette,48.89835196548483,2.386150136590004,27,19115,9,12,2,1689969377
13497763,Ouest - Château ,48.83617286014242,2.319392143923804,23,14034,5,5,12,1689969102
653042442,Place aux Étoiles,48.91835629408464,2.3523425683379173,40,32010,6,9,20,1689969257
49807107,Flandrin - Henri Martin,48.8643275,2.2724174,18,16018,0,3,14,1689968871
210747224,Pirogues de Bercy - Libourne,48.832308,2.38637,49,12034,16,12,21,1689969379
357409723,Place Violet,48.84487893836502,2.2905756533145905,30,15033,14,2,13,1689969410
570185777,Gare de Courbevoie,48.8993867,2.2506506,35,24002,1,2,32,1689969304
54000571,Dugommier,48.838811048815,2.3896577954292,53,12201,30,4,15,1689969303
473204291,Victor Hugo - Magasins Généraux,48.903281401126755,2.368072383105755,34,33001,0,1,33,1689969220
27363103,Porte d'Auteuil,48.8479394142243,2.2608396783471107,33,16034,14,5,14,1689969392
27363096,Charenton - Wattignies,48.83667579640627,2.391795855555629,1,12030,0,0,1,1689346431
85145704,Réunion - Avron,48.852566752033766,2.403928068708116,26,20132,0,3,23,1689969152
653044270,Claude Bernard - Arbalète,48.83976676978202,2.347510904073715,17,5114,2,3,10,1689969233
85143075,Evariste Galois,48.873087537345,2.4133380129933,0,20120,0,0,0,1686838178
26958435,Square des Saint-Simoniens,48.8701796,2.3967273,25,20119,0,2,22,1689969382
6385,Petit - Manin,48.88650687534334,2.3938155401308374,22,19019,5,15,1,1689969025
210753033,Gare d'Austerlitz,48.842524,2.364044,14,13014,7,5,1,1689969356
82550925,Place des Marseillais,48.82663907252554,2.4059280753135686,37,42207,19,4,10,1689969381
85165045,Place Jean-Baptiste Clément,48.81240466867336,2.3617091774940495,25,42707,3,4,16,1689969076
129119449,Ménilmontant - Pelleport,48.87068263384462,2.398959602331646,19,20036,1,2,16,1689969367
475524450,Chanzy - Sud-Est,48.888912037698766,2.195632159709931,25,92003,3,1,21,1689969416
653048150,Jussieu - Guy de la Brosse,48.845665,2.355653,40,5119,5,4,30,1689969390
244400797,Jean Lolive - Parc Stalingrad,48.89206174403158,2.4091735482215886,22,35009,0,7,15,1689969127
213922790,Champeaux - Gallieni,48.864459134684644,2.4161778017878532,50,31705,1,0,48,1689969315
129001431,Courcelles - Place des Ternes,48.878199928923124,2.2992860188665043,31,8055,1,11,18,1689969411
653203262,Parc Pierre Lagravère,48.92650488131725,2.239069678491417,30,27002,11,4,10,1689969279
406806401,Guichet - Jean Jaurès,48.905169868129036,2.3023840785026555,28,21109,16,8,3,1689969332
1063035479,Parvis Robert Schuman - Roger Salengro,48.812657470558754,2.1921751275658607,24,23701,1,5,16,1689969413
54000595,Navier - Epinettes,48.89587780769155,2.3226776719093327,36,17007,0,0,36,1689969413
82571110,Verdun - Place Henri IV,48.870797375639214,2.2277003154158592,26,21502,4,5,15,1689969162
54000582,Edgar Quinet - Gaité,48.84116092896631,2.32459545135498,27,14001,3,16,5,1689969401
217235307,Place Carnot,48.85593932186797,2.441531717777252,25,31012,3,4,17,1689969273
210748575,Gravelle - Route du Bac,48.824407,2.418455,51,12126,36,9,5,1689969226
82421994,Gare de Bercy,48.839794573906,2.3826066032052,35,12024,17,1,14,1689969350
129086648,Ceinture du Lac Inferieure - Saint-Cloud,48.86218070933143,2.2617871686816216,42,16129,1,6,33,1689969236
217572769,Anatole France - Jean Lolive,48.8949922,2.4253764,28,35019,9,7,7,1689969402
214298601,Boyer-Barret - Raymond Losserand,48.83329880233322,2.3173383995890617,23,14104,2,0,21,1689969342
129125489,Piat - Parc de Belleville,48.87195626635528,2.384981390278095,21,20113,0,2,16,1689969377
214122655,Lagny - Joffre,48.84930687084088,2.417949736118317,31,41604,0,2,27,1689969144
82458977,Place Falguière,48.83629973941847,2.3104464635252953,23,15017,1,2,20,1689969188
129077035,Emeriau - Place de Brazzaville,48.850785261674964,2.2871585190296173,51,15029,16,0,34,1689969069
15461933,Parc Monceau,48.881077914129,2.3095492646098,18,17018,0,2,16,1689969406
653046029,Place Valhubert,48.844182577315,2.3640366643667,37,5116,27,5,0,1689969390
216473073,Tardieu - Chappe,48.884146759782,2.341845408082,18,18005,0,4,14,1689968924
37521,Petites Ecuries - Faubourg Poissonnière,48.87397217237368,2.348388757504776,17,10005,1,4,12,1689969299
2515976231,Nanterre - Université,48.901365,2.212693,20,92004,0,6,14,1689969296
129103849,Francoeur - Marcadet,48.89104123261663,2.340014585442034,20,18020,1,4,14,1689969231
1057009034,Henri Chevreau - Couronnes,48.87033205312931,2.388777695596218,27,20136,0,1,25,1689969387
82334007,Pascal - Claude Bernard,48.839061952159746,2.3499782010912895,49,5026,7,5,36,1689969119
214146056,Vignerons - Minimes,48.841486,2.430793,29,43006,0,3,25,1689969088
15308782,Sommerard - Saint-Jacques,48.850310432924466,2.345015835298588,34,5002,16,4,14,1689969366
85008390,Grenelle - Dr Finlay,48.851315406715976,2.2919502854347233,71,15028,2,1,67,1689969356
216039437,Lamennais - Washington ,48.87352990026496,2.303444892168045,26,8102,3,0,19,1689969294
215495494,Batignolles - Place de Clichy,48.88347453575669,2.326493114233017,47,8012,3,1,41,1689969393
43155320,Porte d'Orléans,48.8227639,2.3249313,48,14018,4,8,32,1689969181
221047138,Pierre et Marie Curie - Julien Grimau,48.870714014863225,2.424097023904324,18,31702,1,4,13,1689969320
35196898,Gare d'Austerlitz - Quai Saint-Bernard,48.84369030864,2.3657163977623,27,13104,0,0,27,1642540077
129130397,Pierre Grenier - Pont de Billancourt,48.8258020742942,2.2487989068031315,21,21013,10,2,9,1689969398
653129412,Vladimir Ilitch Lénine - Andrée Chedid,48.813240124373,2.3319716067039,31,42503,1,7,22,1689969361
54000634,Bineau - Louise Michel,48.88666162207,2.2843274474144,0,23011,0,0,0,1688614813
419381597,Professeur René Leriche - Général Leclerc ,48.90782845483013,2.307887971401215,50,21111,5,7,37,1689968840
27414601,Saint-François-Xavier,48.85154484769,2.3146149516106,42,7014,5,1,34,1689969110
54000548,Quai Voltaire,48.858942986179,2.3314182047146,32,7006,1,2,24,1689969349
54000466,Uzès - Montmartre,48.870790980240706,2.3431010171771054,29,2010,1,2,25,1689969250
426772876,Ledru-Rollin - Charonne,48.85345855607243,2.3772463581947094,32,11114,16,11,3,1689969363
74620630,Parc de Belleville - Julien Lacroix,48.8703459,2.3842214,26,20040,1,6,17,1689969291
129091653,Gare de Pont-Cardinet,48.88713901475306,2.314494143994255,34,17017,3,2,24,1689969349
129036192,Gare de l'Est - Verdun,48.876156054271,2.3609149083206,14,10023,0,0,14,1689969294
129134084,Morice - Général Leclerc,48.90245471981591,2.3128929734230046,25,21105,11,5,8,1689969390
100905057,Londres - Amsterdam,48.878034461504,2.3264835409694,0,8101,0,0,0,1522431756
11004671601,Capitaine Glarner - Gabriel Péri,48.902449900418745,2.3304807533425724,27,34002,1,2,21,1689969175
210754072,Place Jean Delay,48.823316,2.354336,35,13026,1,0,33,1689969415
419991048,Pont de Levallois-bécon ,48.8984179,2.2791311,50,23002,10,1,38,1689969397
2820744873,Pierre Larousse - Raymond Losserand,48.83059564231877,2.3119183257222176,30,14139,1,0,27,1689969169
213676825,Pitié-Salpêtrière,48.83748810318667,2.365213818848133,51,13102,4,0,47,1689969399
15299574,Charles Delescluze,48.85242200848887,2.380632497370243,49,11101,17,9,21,1689969371
41566122,Vasco de Gama,48.83671783466264,2.283664085650799,54,15055,47,1,3,1689969417
963786819,Jonquoy - Didot,48.82890454823947,2.31648076325655,30,14130,3,0,27,1689969393
427678168,Lucien Sampaix - Récollets,48.874330377560476,2.3621229082345963,46,10015,8,5,32,1689969183
976762284,Place du Général de Gaulle,48.8525288,2.4877332,28,41207,4,3,20,1689969356
213686196,Lauriston - Copernic,48.86926,2.289918,19,16006,0,2,16,1689969263
82421013,Charenton - Place du Col Bourgoin,48.844867319554,2.3825789350545,35,12011,21,10,2,1689969334
434419150,Bara - Henri Farman,48.833218027457846,2.2677567601203923,36,21308,2,2,30,1689969408
252339799,Edouard Vaillant - Paul-Adolphe Souriau,48.83484585882868,2.2479459643363957,28,21019,13,2,13,1689969407
224589573,Michelet - Assas,48.84274150283194,2.335021197795868,18,6018,1,2,14,1689969149
220502135,Porte Dorée,48.8354337,2.4077132,36,12032,21,10,4,1689969416
129114993,Belleville - Porte des Lilas,48.87660391892763,2.404769691129476,32,19037,0,1,31,1689968895
129124069,Haxo - Surmelin,48.8694370761222,2.40539657537972,21,20109,0,1,18,1689969205
221094844,Place Alphonse Deville,48.850188262662,2.3275961726904,23,6107,0,1,20,1689968980
220726050,Mézières - Rennes ,48.85023459321703,2.3303819820284843,55,6103,1,3,51,1689969049
254224239,Place Adolphe Cherioux - Vaugirard,48.83959442800459,2.3010657727718353,63,15038,11,10,40,1689969207
1805401614,Sèvres-Gallieni,48.837809408957,2.2281519323587,27,21032,4,0,23,1689968878
129116697,Tanger - Place du Maroc,48.8862524447104,2.3689296841621403,19,19109,1,0,18,1689969211
977409509,Vincennes - Douy-Delcupe,48.85493692155721,2.436049282550812,38,31019,1,4,31,1689968974
653055049,Place du Cornillon - Stade de France,48.92540695835961,2.3644426837563515,34,32014,9,8,14,1689969401
221041655,Porte de Clignancourt.,48.897488,2.343996,56,18032,3,4,47,1689969415
1057769632,Porte de Saint-Ouen - Henri Huchard,48.898708366365064,2.3295360803604126,26,17124,0,1,25,1689969296
1333959209,Génie - Mozart,48.794902381218904,2.3734183609485626,19,44012,0,3,15,1689969305
213690256,Place du Maréchal Juin - Péreire,48.885263,2.298286,46,17027,2,0,39,1689969346
476183970,Gare de l'Est - Place du 11 Novembre 1918,48.876327,2.3585464,40,10165,6,7,24,1689969298
632007124,Lucie Aubrac - Franklin,48.86223916006812,2.4435862898826604,36,31016,0,1,34,1689969378
977206088,Hôtel de Ville d'Argenteuil,48.946504,2.2496396,30,51003,17,8,5,1689969199
213868408,Gare Routière de Saint Cloud,48.84288183896324,2.222245037555695,31,22101,1,2,28,1689969291
129061615,Primo Levi - Frigos,48.83094844846017,2.37965351592796,34,13016,20,8,3,1689969407
224598098,Dunois - Clisson,48.832294,2.3674523,51,13043,21,3,26,1689969399
82381710,Batignolles - Rome,48.881823370566806,2.3202589899301524,15,8051,0,3,12,1689969094
43165673,Belfort - Voltaire,48.8563358,2.3829901,39,11020,1,3,31,1689969363
10968855,Colonel Monteil - Brune,48.82650293311,2.3092747998272,19,14122,0,0,19,1689968876
82508970,Verdun - Adrien Damalix,48.8222334178559,2.4215328320860863,26,44102,10,2,14,1689969400
653055097,Milton - Manuel,48.878249,2.341181,22,9115,3,3,16,1689969018
221038698,Mahatma Gandhi,48.876356,2.264205,26,16123,1,2,23,1689969407
27246227,Edouard Pailleron - Simon Bolivar ,48.87979886049996,2.374839261174202,24,19039,0,0,23,1689969312
63297,Eglise d'Auteuil,48.84749841771691,2.26848387135299,21,16032,1,7,11,1689969185
95927849,Jean Jaurès - Jean Baptiste Clément ,48.84576261454011,2.2369650006294255,24,21003,18,6,0,1689969350
102341385,Château - Bineau,48.890404028589806,2.270106375217438,23,22001,0,1,21,1689969253
54000605,Mairie du 18ème,48.892939296937605,2.3445510864257812,40,18025,2,3,32,1689969402
979059925,Bridaine - Lamandé,48.8862074,2.3206239,29,17122,1,3,22,1689969411
6512,Porte de Ménilmontant,48.8691543609174,2.40932246879487,15,20027,0,0,15,1689939884
27363323,Laffitte - Italiens,48.871815737396,2.3372015478451,33,9023,0,0,31,1689969093
85118872,Indre - Prairies,48.86254398506782,2.403290458023548,38,20021,0,0,38,1689969354
129145892,Paris - Désiré Préaux,48.85742876694898,2.4323049187660217,49,31007,5,6,35,1689969206
102289046,Lourmel - Marie Skobtsov,48.844974,2.287283,22,15108,12,5,5,1689969401
124402232,Belleville - Télégraphe,48.8756045,2.3995549,41,19040,0,3,38,1689969233
985086307,Gare d'Asnières sur Seine,48.90636459217474,2.2835066914558415,24,26001,14,5,0,1689969340
27415327,Courcelles - Pierre Demours,48.883769733273496,2.29858466343129,26,17047,1,1,23,1689969321
100798076,Danton - Serpente,48.85229736258167,2.3414132371544834,22,6016,14,3,3,1689969212
1063404053,République - Danton,48.85249172181667,2.462034523487091,20,41204,2,0,18,1689969299
76199110,Université Paris Dauphine,48.870707839985,2.2748656198382,0,16004,0,0,0,1520582013
54000598,Mac-Mahon - Brey,48.877532084130166,2.294512536052928,25,17046,0,2,22,1689969067
989753852,Square des Epinettes,48.89383909781389,2.325953990221024,20,17121,3,2,13,1689968824
990000217,Les Planètes ,48.8099849920804,2.4580853059887886,16,47006,12,3,1,1689969141
121025345,Chabrol - d'Hauteville,48.87701838803332,2.3513179644942284,11,10020,2,3,4,1689969393
213692714,Lepic - Armée d'Orient,48.88753640381415,2.334307730197907,24,18113,1,4,18,1689969398
82577019,Cité des Sciences et de l'Industrie,48.89659571178903,2.384599149227142,30,19009,18,10,0,1689969188
39256416,Pajol - Riquet ,48.88960028134536,2.3628534749150276,47,18109,0,1,45,1689969384
255207155,Lassus - Delouvain,48.8755044846,2.3890327325519,20,19038,0,1,19,1689969242
63769334,Emile Blemont - Poteau,48.8943782,2.3415122,39,18029,0,5,33,1689969391
129136818,Square du Carrefour de l'Insurrection,48.820864559770676,2.291113436222077,23,21703,2,7,13,1689969361
653080986,Toffier Decaux - Cartier Bresson,48.90165072551549,2.4017545580863957,18,35017,6,9,0,1689969250
27415469,Orteaux - Mouraud,48.85558642847872,2.408762907764669,24,20118,0,0,23,1689969146
39599631,François Ponsard - La Muette ,48.8583666,2.2744515,23,16021,1,1,21,1689969351
84979504,Provence - Chaussée d'Antin,48.87428447542072,2.332976511564311,25,9031,1,2,19,1689969115
653059015,Bellefond - Maubeuge,48.878255397645,2.3452642187476,31,9117,2,2,26,1689968955
85120104,Pelleport - Belgrand,48.86500081847653,2.403980836377493,15,20023,1,3,11,1689969414
37936869,Assas - Vaugirard,48.848274111398,2.3292413726449,35,6030,0,1,32,1689969322
101748685,Place Etienne Pernet,48.84243457133779,2.2921819612383847,43,15035,28,5,10,1689969376
54000608,Porte d'Aubervilliers,48.89859661942376,2.3689722642302513,55,18049,2,5,41,1689969417
102743096,Sadi Carnot - François Mitterrand ,48.87532687671517,2.4241617321968083,27,31703,0,6,21,1689969020
126175087,Gabrielle Josserand - Edouard Vaillant,48.90271566255436,2.3933270573616032,25,35003,15,3,3,1689969415
101746493,Théâtre - Lourmel,48.8482070397636,2.2898658737540245,53,15031,15,4,33,1689969264
27363137,Hameau Fleuri - Marché,48.831448892608314,2.2412404417991643,22,21014,12,2,6,1689969402
66491394,Square Saint-Ambroise,48.860934,2.375841,43,11041,8,4,28,1689969394
339797666,Charles de Gaulle - Jean Lolive,48.8932644350857,2.4126765131950383,26,35014,11,5,9,1689969305
1968156458,Ecole Vétérinaire,48.81488859822486,2.4224362157778994,36,47005,27,6,1,1689969417
82404497,Ledru-Rollin - Place du Père Chaillet,48.856433706943704,2.379020587761426,37,11006,19,7,5,1689969353
991351798,Aubervilliers - Curial,48.89088305227546,2.3688579350709915,23,19127,1,3,16,1689969404
7304,Bassano -  Iéna,48.868144510482075,2.296149600985935,15,16015,0,0,15,1689968978
54000592,Balard - Montagne de la Fage,48.83850740333351,2.2782871127128606,36,15070,27,3,4,1689969343
1002738770,Lavandieres Sainte Opportune - Rivoli,48.859279702476,2.3466217517853,27,1120,16,7,1,1689969407
54000572,Diderot - Pierre Bourdan,48.847648620797,2.3902582749724,21,12107,1,5,13,1689969172
15409531,Méchain - Faubourg Saint-Jacques,48.83586772099485,2.33798034198275,16,14112,0,0,15,1689969075
29327,Stade Auguste Delaune,48.80896378683884,2.4345204234123234,21,47004,15,2,2,1689969406
36298,Jean-Baptiste Pigalle - La Bruyere,48.87939826447722,2.333709173337285,17,9026,4,1,12,1689969141
37903195,Transvaal - Charles de Gaulle ,48.848280403628806,2.2373420120857195,27,21001,15,6,3,1689969142
102313219,Belliard - Damrémont,48.89669238777841,2.338023450388167,34,18033,6,6,19,1689969347
100906707,Boulets - Faubourg Saint-Antoine,48.849259262115,2.3917546141943,43,11010,8,7,27,1689969379
624177860,Route de la Muette - Porte de Neuilly,48.8798926,2.2587671,50,16122,1,2,45,1689969049
27369223,Maine - Antoine Bourdelle,48.84308531746595,2.320263946784738,17,15002,8,8,0,1689969325
102336814,Kléber - Gouverneur Général Eboué,48.826885843069796,2.2723413258790965,24,21310,18,0,3,1689969414
484423835,Président Wilson - Jean Jaures,48.89034054052266,2.2920683026313786,27,23007,12,4,9,1689969369
54000618,Pyrénées - Maraîchers,48.85714001395299,2.4043509364128113,19,20016,0,2,16,1689969157
653059879,Gare RER de Saint-Denis,48.93554324248177,2.3471488058567047,40,32015,17,15,5,1689969382
210583589,Place Jacques Bonsergent,48.870948218595,2.3612049221992,33,10010,2,2,28,1689969208
653050378,Square René Viviani - Montebello,48.851904891406384,2.347842156887055,34,5121,18,11,3,1689969396
15291968,Place de Passy,48.85780291711202,2.277500546942199,15,16043,0,1,14,1689968989
66491407,Haies - Réunion,48.85386896766491,2.402426162238911,22,20116,1,4,15,1689969299
15387809,Mozart - Jasmin,48.85286124871689,2.268483570651513,62,16027,2,4,55,1689969291
100918666,Place Pasdeloup,48.862654215631,2.3670325062844,21,11043,5,3,13,1689969415
1002059045,Pont Neuf - Rivoli,48.860089892617,2.344057559967,27,1117,13,9,3,1689969407
129101773,Caulaincourt - Place Constantin Pecqueur,48.8896779050281,2.33817871442611,44,18017,2,25,16,1689969349
213987795,Wilson - Landy,48.91516726221354,2.357633225619793,40,32004,3,3,32,1689968971
15397468,Maison de Radio - France,48.85132886434057,2.277785539627075,47,16029,24,0,23,1689969401
84966359,Naples - Rome,48.879960700846226,2.321358695626259,26,8019,0,0,24,1689969055
42908639,Lallier - Trudaine ,48.88109246617963,2.3408224806189537,29,9017,0,4,24,1689969090
125469898,Square Léon,48.88667396788626,2.353205569088459,33,18008,0,2,28,1689969188
52329,Chernoviz - Raynouard,48.8569864146289,2.282173218142987,37,16112,2,3,30,1689969108
912377361,Diderot - Reuilly,48.847208456061,2.3861273378134,44,12161,27,13,3,1689969165
85162552,Fontainebleau - Edmond Michelet,48.80956436844049,2.3626908659935,45,42703,1,3,40,1689969128
54000586,Pernety - Raymond Losserand,48.834254627953,2.317609339387,32,14030,3,3,25,1689969374
2515738489,Eugène Reisz - Davout,48.85631874632638,2.410396970808506,20,20201,0,1,19,1689969205
256561528,Eugène Oudiné - Dessous Des Berges,48.8256423,2.3750226,44,13046,26,2,15,1689969372
452920451,Mont Valérien - Michel Salles,48.8561915,2.2152966,24,22102,2,0,21,1689969297
37920,Traversière - Ledru-Rollin,48.850735824128805,2.375870111706245,34,12004,12,1,21,1689949857
54000588,Gare Montparnasse - Vaugirard,48.8418071798797,2.31951002690117,66,15003,17,16,26,1689969415
1020700136,Neuve Saint-Pierre - Beautreillis,48.85355351439652,2.3639122769236565,20,4110,12,6,1,1689969143
100855693,Sabot - Rennes,48.852575112948415,2.331552766263485,26,6032,7,1,17,1689969319
653073004,Tremblay - Lac des Minimes,48.834131261494,2.4547516554594,48,12127,0,0,47,1689969335
102304517,Pereire - Place de Wagram,48.887070607581215,2.304111124531457,46,17022,3,2,41,1689969009
128889359,Champ de Mars - Cler,48.856691550115315,2.306646779179573,41,7020,9,1,29,1689969331
256124192,Belleville - Pyrénées,48.8741908,2.3860039,42,19041,0,1,39,1689969383
259977414,Palais des Sports,48.833468517426,2.2858720645308,22,15107,11,1,7,1689969268
210737808,Aqueduc - Villette,48.883886063895,2.367198803315,28,10036,4,8,14,1689969264
17526921983,Mairie de Sceaux,48.778916905132,2.2887361764861,33,23304,11,18,0,1689969342
54000546,Sénat - Condé,48.84954227788459,2.337939441204071,33,6017,4,2,7,1689969409
129042700,Granges aux Belles - Hôpital Saint-Louis,48.874794994841274,2.366669436984963,60,10114,2,3,52,1689969023
35137730,Hôpital Pitié Salpêtrière,48.8377016,2.3604946,50,13103,10,5,34,1689969396
27364581,Parc de Choisy,48.828156251575,2.3585135329033,0,13122,0,0,0,1688643072
54000549,Villersexel - Saint-Germain,48.858297001218,2.3237934708595,16,7008,1,1,12,1689969057
653127524,Gustave Eiffel - Parc des Impressionnistes,48.90390619651018,2.2946908324956894,30,21114,14,4,11,1689969407
2515686699,Borrégo - Gambetta,48.87330497045532,2.4014145880937576,25,20137,0,3,22,1689969266
17527110170,Stade Gaston Bouillant,48.940273514964,2.3274196014227,30,23903,3,1,26,1689969358
17527065847,Chateau,48.774661399959,2.3135878035462,22,23403,15,6,0,1689969360
42499285,Petit Palais,48.8667692,2.3157655,46,8001,0,0,46,1689968880
82568336,Jeanne Hornet - Girardot,48.873802681432146,2.427820265293122,29,31704,0,4,20,1689969400
54000611,Manin - Simon Bolivar,48.87649965412676,2.379407362599104,26,19023,1,9,11,1689969345
66491408,Calmette,48.88104925098552,2.424993216991425,32,32603,0,2,29,1689969099
100872260,Duroc - Place de Breteuil,48.847460641142,2.3126140236855,42,7013,2,4,33,1689969309
36151,Favart - Italiens,48.871446353921,2.3382901058508,17,2013,1,0,16,1689969202
213848056,Parvis Corentin Celton,48.82747252522725,2.2784319519996648,55,21311,49,0,3,1689969414
452936197,Bois de Vincennes.,48.8338064,2.4132221,60,12041,19,5,36,1689969399
54000545,Parc André Citroën,48.840639944296655,2.2780618071556096,65,15059,45,4,10,1689969256
66505511,François 1er - Montaigne,48.866887649978096,2.306675575720671,29,8038,0,4,25,1689969400
66491386,Surcouf - Université,48.861273016278126,2.309453550914185,58,7016,14,9,31,1689969352
1023083417,Ney - Charles Hermite,48.89874803977525,2.3645754531025887,20,18138,3,2,12,1689969312
224256188,Beaujon - Wagram,48.875352455985,2.2964416444302,29,8056,1,1,27,1689969193
54000541,Vieille du Temple - Francs Bourgeois,48.858256413365815,2.35821794718504,29,4013,6,5,17,1689969337
101490103,Saint-Jacques - Tombe Issoire,48.833206330538864,2.3369108140468597,23,14006,0,0,21,1689969113
54000539,Hôtel de Ville - Pont-Marie,48.85389964552738,2.356947250664234,36,4011,28,5,1,1689969303
1025995767,Hôtel de Ville de Champigny sur Marne,48.813810628405,2.5096759200096,21,45001,9,8,4,1689969322
544249939,Raspail - Chomel,48.852233164303,2.3266580700874,49,7101,0,0,48,1689969223
82432573,Porte d'Ivry,48.82176874759649,2.3688706755638127,50,13041,8,15,27,1689969094
1021553839,Faubourg Poissonniere - Delta,48.882555807626765,2.3497482016682625,36,9118,0,1,32,1689969372
1021176825,Billancourt - Général Leclerc ,48.8322649,2.2380413,22,21024,3,1,18,1689969037
653065577,Gare du Nord - Demarquay,48.881154,2.358411,30,10163,0,2,25,1689969404
1034242363,Place François Mitterand,48.86492782016328,2.442958317697048,34,31023,1,2,31,1689969155
335780498,Greneta - Sebastopol,48.865242333228,2.3516669869423,32,2001,10,4,15,1689969407
256403519,Place Pigalle,48.8827555,2.3361566,21,18042,4,7,9,1689969246
484387018,Place du Maquis du Vercors,48.877321579493575,2.4083782732486725,31,20019,0,0,30,1689969402
1035816937,Poissonniers - Nord,48.892511213520656,2.3522228747606277,28,18137,1,5,22,1689968848
66507229,Reims - Porte d'Asnières,48.891834448210986,2.300144659954865,26,17116,3,2,19,1689969328
27415012,Bercy.,48.839966914994,2.3788625746965,66,12108,50,3,10,1689969299
263610599,Centenaire - Sorins,48.85853523359734,2.4273508787155156,45,31013,2,13,30,1689968966
49772483,Damrémont - Caulaincourt,48.88714509078738,2.3325880989432335,18,18001,1,0,17,1689969417
653066427,Franciade - Gabriel Péri,48.93261499331498,2.355954498052597,26,32018,4,4,18,1689968980
129089749,Brochant - Square des Batignolles ,48.88818698581028,2.316861143151153,31,17016,3,5,20,1689969157
82587428,Dupont de l'Eure - Gambetta,48.8679385,2.4003649,31,20202,2,1,28,1689969411
27415297,Square Raymond Souplex,48.89183721478911,2.335426103165901,52,18019,5,2,43,1689969115
100770878,Poissy - Saint-Germain,48.84969649427,2.3529685288668,25,5019,16,5,2,1689969321
54000607,Convention - Saint-Charles,48.84315611111599,2.2831090539693832,19,15063,13,0,3,1689969389
13283986,Keller - La Roquette,48.8555508,2.3752778,34,11003,19,10,3,1689969320
100910836,Parmentier - Fontaine au Roi,48.86787670551736,2.372705978671471,48,11034,0,2,44,1689969207
27363256,Thérèse - Opéra,48.866483514509,2.3344334212238,25,1016,1,0,23,1689969273
6515,Rougemont - Poissonnière,48.871611569354755,2.345873080193996,30,9012,8,8,14,1689969398
41523981,Mairie du 15ème,48.8417762,2.2986539,32,15020,24,3,5,1689969161
1034247348,Place des Larris,48.8568363,2.4780236,34,41206,7,14,12,1689969408
39536951,Vistule - Choisy,48.82365543660611,2.3615723848342896,33,13113,4,5,24,1689969398
35089539,Manin - Crimée,48.8831217743719,2.3863670602440834,23,19031,1,6,16,1689969196
27415169,Nationale - Marcel Duchamp,48.82463749337136,2.3678014799952507,23,13114,4,0,17,1689969272
15412563,Square Desnouettes,48.83476837934194,2.284142297394666,22,15061,7,3,12,1689969412
30179848,Saint-Blaise - Mouraud,48.85696177597818,2.40869477391243,27,20017,0,0,27,1689969264
27363029,Charonne - Philippe-Auguste,48.855603162026,2.39054639062,32,11019,1,0,30,1689969248
484889494,Hôtel de Ville de Levallois Perret,48.89314451997415,2.2888818383216862,26,23008,5,2,15,1689969242
27415285,Place de Finlande,48.862408335967,2.3113624379039,25,7026,16,2,2,1689969238
100902274,Roquépine - Malesherbes,48.87345073390807,2.320404499769211,37,8015,3,3,28,1689969405
15414455,Paul Doumer - La Tour,48.860116109626574,2.280840481911055,34,16016,0,5,29,1689969328
78348185,Mairie de Clichy,48.903653634661,2.3059353232384,51,21108,40,3,6,1689969257
36003,Pont de Lodi - Dauphine,48.855296898603285,2.339947307565249,23,6014,7,12,2,1689969340
27415215,Romain Rolland,48.820215229662765,2.3234144234418346,25,14116,0,0,24,1689969005
263732151,Gambetta - Michelet,48.85273792380526,2.429966032505036,33,31018,2,6,25,1689969167
1036199130,Les Juilliottes,48.8043072,2.4437362,21,47002,12,7,1,1689969394
129161858,République - Henri Barbusse,48.90661553626751,2.389432489871979,32,33005,12,9,8,1689969409
653035822,Jeûneurs - Mulhouse,48.868997,2.346925,28,2110,3,4,21,1689969310
27414460,Danielle Casanova - Place Vendôme,48.86826649822326,2.3304839059710503,37,1022,1,0,35,1689969306
76488849,Fernand Braudel - Vincent Auriol ,48.83637852318147,2.3723404482007027,36,13019,22,3,7,1689969372
60667075,Georges V - François 1er,48.87034,2.30082,22,8049,0,0,22,1689969317
75313725,Ferrus - Saint-Jacques,48.8313878,2.3408563,34,14007,1,0,32,1689969176
653069115,Claude Vellefaux - Sambre et Meuse,48.875022,2.370478,34,10164,3,13,17,1689969276
82419429,Faidherbe - Dahomey,48.851358329771806,2.383823134795429,44,11107,21,2,13,1689969255
349750111,Bleue - Trévise,48.87578906564573,2.347289621829987,30,9113,0,3,24,1689969393
52453,Le Vau - Maurice Bertaux,48.86803439043193,2.411030612453627,25,20103,0,2,23,1689968902
210389577,Daunou - Louis le Grand,48.869113,2.332515,17,2014,1,3,12,1689969262
15401095,Versailles - Claude Terrasse,48.84021933807409,2.263834191152959,46,16041,35,7,2,1689969356
1055553396,Mornay - Sully,48.84970399548416,2.364460788667202,15,4109,8,5,1,1689969415
210394523,Porte Saint-Martin,48.86860172112996,2.35570102930069,34,3101,1,2,29,1689969354
1036226943,Parc de Sceaux - Centre-Ville,48.7769529826096,2.2957214713096623,33,23302,11,12,7,1689969382
66505513,François 1er - Lincoln,48.869517979344,2.3024262188416,31,8105,0,0,29,1689969317
66491371,Pierre Sarrazin - Saint-Michel,48.85090814639774,2.3421307280659676,33,6031,9,0,23,1689969307
1056959071,Place Mireille Havet,48.850533,2.383756,43,11048,14,5,19,1689969408
486833337,Bachaumont - Montmartre,48.86617395079137,2.3449775576591496,33,2101,4,1,28,1689969316
1055541632,Place Tony de Graaff,48.8181645,2.2458109,42,21952,28,4,10,1689969410
606669250,Square Georges Melies,48.84070239213081,2.409667745232582,40,12154,1,6,29,1689969320
66491368,Sorbonne - Ecoles,48.849686566191,2.3434996604919,50,5030,5,1,43,1689969090
15383032,Place du Canada,48.865346269362675,2.310193787964762,39,8029,2,2,34,1689969314
54000561,Lamartine - Faubourg Montmartre,48.87661398289084,2.339765690267086,32,9015,6,3,21,1689969389
17638171254,Charles de Gaulle - Louis Philippe,48.881742142181,2.2710045335353,28,22017,2,1,25,1689969345
54001190,Mairie du 19ème,48.88256264247959,2.3812624812126164,27,19021,1,3,23,1689969417
54000567,Montreuil - Voltaire,48.850507011842,2.3930755582745,34,11012,8,2,23,1689969307
82569809,Jardin Marguerite Long,48.8816985773914,2.2836575657129288,22,17104,1,0,20,1689969383
460558111,Square du Bataclan,48.8633762,2.3711327,20,11044,9,3,6,1689969380
266052390,Melun - Jean Jaurès,48.8837796723475,2.376477420330048,28,19030,11,10,5,1689969375
37952191,Jean Jaurès - Reine,48.84009622558849,2.239872515201569,31,21004,27,1,3,1689969391
34300292,Argenson - Château,48.888559314669514,2.2642001509666447,25,22002,2,0,23,1689969043
82554786,Place de l'Eglise - Pantin,48.892809461520265,2.4124351143836975,30,35008,6,4,18,1689969305
268976295,Butte aux Cailles - Esperance,48.82758774190948,2.3492151126265526,36,13022,6,20,8,1689969371
27415444,Louis Ganne - Davout,48.86338720692607,2.409725748002529,30,20045,0,0,29,1689969333
84983562,Roquette - Folie Regnault,48.859246959155485,2.386553623578705,52,11110,2,0,47,1689969395
129081441,Vignes - Boulainvilliers,48.856399483950504,2.275240458548069,21,16031,0,1,20,1689969199
1056986761,Terroirs de France - Lheureux,48.83212027074841,2.388618104159832,55,12153,21,5,29,1689969417
41610121,Censier - Jardin des Plantes,48.84107178161383,2.355475388467312,28,5028,11,4,13,1689969377
82566934,Brochant - Clichy,48.89032998912038,2.319730559929781,53,17005,5,2,38,1689969416
82590367,Place Marcel Sembat,48.83328865030686,2.2441747784614567,56,21017,39,3,10,1689969415
43219958,Odessa - Départ,48.842885590081,2.3244281485677,39,14127,20,16,1,1689969329
35106544,René Coty - Parc Montsouris,48.82479134498032,2.336124926805496,55,14016,2,5,46,1689968823
267976590,François Truffaut - Saint Emilion,48.83372354344807,2.386601903271428,66,12033,42,14,8,1689969381
1056965116,Lac Daumesnil - Saint-Maurice,48.82774555743318,2.4183654785156246,50,12120,24,19,4,1689969242
54000630,Madeleine Michelis - Roule,48.88260431301364,2.2773634269833565,25,22012,5,3,13,1689969339
452347778,Daumesnil - Picpus,48.8374688,2.401765,21,12010,14,3,6,1689969343
1599921040,Jessaint - Marx Dormoy,48.88484543106364,2.358930408954621,30,18142,1,0,27,1689969222
129096696,Léon - Doudeauville,48.88832421845225,2.353573372638597,13,18014,1,4,8,1689969383
82573931,René Binet - Porte de Montmartre,48.89905109950848,2.3365534096956253,37,18035,1,2,34,1689969291
82436057,Moulin de la Pointe,48.82092946051445,2.3563179373741145,22,13110,1,1,19,1689969322
11851037297,Sèvres Rive Gauche,48.821443218278,2.2150785306885,33,23105,0,1,32,1689969297
269953055,Quai Marcel Boyer - Victor Hugo,48.82255636666729,2.392039597034455,29,42011,4,1,22,1689969417
82448637,Suffren - Pérignon,48.84717561492764,2.307052147596786,46,15009,16,4,25,1689969236
271540743,Gare de Clichy-Levallois ,48.89679827481989,2.2984680533409123,26,23005,4,3,19,1689969191
11851327865,Docteur Calmette - Martre,48.898969358483,2.3086513252383,30,21120,8,3,17,1689968965
13372702,Saint-Fargeau - Mortier,48.87266656122256,2.407912909984589,33,20117,0,1,32,1689969032
1599931563,République - Auguste Perret,48.78695280952244,2.3518594354391094,30,48009,0,3,26,1689969279
15411223,Dareau - Broussais,48.8307758,2.3361804,24,14125,2,3,17,1689969161
85152599,Le Corbusier - Jean Jaurès,48.83780830557548,2.2408381104469304,46,21009,37,4,3,1689969364
284711589,Beaumarchais - Pas de la Mule,48.855580507049,2.3684333673431,18,4107,11,2,4,1689969249
66491406,Cours de Vincennes - Davout,48.847238029966,2.4107042336225,48,20047,0,2,46,1689969310
30550,Mairie du 9ème,48.87326713758289,2.340753448052758,24,9013,2,0,22,1689969321
478593396,Jean Moulin - Paul Doumer,48.8622179854695,2.45533436536789,20,31017,6,9,4,1689968913
213675430,Boutroux - Porte de Vitry,48.822632,2.377738,49,13047,43,3,0,1689969405
213693126,Véron - Lepic,48.88526123395252,2.334559857845307,23,18114,2,6,14,1689969417
363735875,Pont De Charenton,48.8179685,2.4199531,18,44103,9,6,3,1689969251
265266148,Pierre Brossolette - Adolphe Pinard,48.82177227954821,2.313155829906464,24,22403,2,0,17,1689969119
357491025,Place Centrale,48.78740167690531,2.2278830409049992,22,21951,0,0,22,1689969199
457713145,Gare de Nanterre Ville,48.8950295,2.1957932,43,92005,31,6,4,1689969370
392576677,Senard - Charles Blum,48.857315824799,2.221091687679291,24,22103,5,1,18,1689969328
52456,Pré Saint-Gervais - Lilas,48.877870626988,2.3959073424339,28,19113,0,1,27,1689969184
338853596,Charles de Gaulle - Orléans ,48.88092225101522,2.271581590175629,26,22009,2,0,24,1689968860
1056995858,Gergovie - Vercingétorix,48.83453413883994,2.313154547426182,29,14128,1,3,24,1689969390
124390478,Commandant l'Herminier - Gallieni,48.847040552603,2.4160453677177,17,20004,0,4,13,1689969100
462875227,Jules Guesde - Alsace,48.890566275506,2.2950777411461,25,23006,0,0,25,1686180940
27414924,Sambre et Meuse - Villette,48.874405666217,2.3738072379951,25,10039,5,17,2,1689969416
390075668,Station Paris Basketball - Stade Georges Carpentier,48.82048243838136,2.366832196712494,40,13117,2,2,35,1689969375
1056972307,Pyramide - Parc Floral,48.837442,2.440452,50,12125,5,4,38,1689969137
653217067,Jules Guesde - Laennec,48.87628983900398,2.5006942078471184,19,31101,0,18,1,1689969271
1109534105,Demi-Lune - Aristide Briand,48.87626381919953,2.4562818557024,20,31026,1,7,12,1689969186
54000550,Rapp - Place du Général Gouraud,48.858102885107,2.3004072904587,31,7024,10,4,11,1689969356
365181481,Guy Môquet - Saint-Ouen,48.892777719023975,2.3270335793495183,53,17001,2,6,44,1689969292
653076373,Bois de Vincennes - Porte Jaune,48.838751246689455,2.4605489149689674,35,12129,9,1,24,1689969291
516395829,Quai des Célestins - Henri IV,48.8512971,2.3624535,14,4005,6,5,2,1689969415
15310509,Choron - Martyrs,48.877851443502536,2.3396701365709305,17,9016,3,2,12,1689969363
275968458,Place du Président Salvador Allende,48.897307310356055,2.40079153681279,60,35004,6,14,39,1689969415
213995665,Square Edmond Pépin,48.883656206899,2.4033531546593,30,33104,0,6,21,1689969136
1062812659,Auguste Blanqui - Glacière,48.831151602964354,2.3438221961259837,60,13515,1,1,56,1689969414
1056979685,Bastille - Quai de la Rapée,48.84682410855,2.3669364675879,27,12150,19,6,1,1689969292
128928526,Clapeyron - Moscou,48.88078819514121,2.324815057218075,15,8011,0,0,12,1689969117
287096529,Paul Klee - Place Augusta Holmes,48.838946417408025,2.3704235663952966,43,13020,32,7,2,1689969307
97705710,Jacquard - Ternaux ,48.8646605,2.373162,39,11031,15,1,21,1689969350
13242682,Alexander Fleming - Belvédère,48.88179064200294,2.4030599377642674,31,19124,0,1,28,1689969197
278576043,Honoré d'Estienne d'Ovres - Grilles,48.89056394743836,2.4064831843792427,18,35011,4,3,7,1689969413
213695073,Hôpital Robert Debré,48.88005222200894,2.4008650346327003,33,19036,1,4,28,1689968868
284708999,Santé - Arago,48.83507657562064,2.3415737262044938,38,14113,1,4,31,1689969030
653062048,Gare du Nord - Place de Valenciennes,48.879089,2.354235,25,10152,7,5,5,1689969391
653079520,Averroès - Aimé Césaire,48.91405323432864,2.412636950612068,19,35015,5,3,11,1689969372
653076393,Place du Front Populaire - George Sand,48.90680713698062,2.364541214992642,35,32021,2,1,30,1689969270
129069108,Paul Barruel - Vaugirard,48.84014918546239,2.3044332861900334,39,15019,9,2,26,1689969366
27415123,Boussingault - Tolbiac,48.82603516605852,2.342176808004326,28,13021,13,0,14,1689969389
213936755,Edouard Vaillant - Galliéni,48.858462881661,2.4147954583168,49,31707,0,0,49,1597371137
30641281,Place de la Montagne du Goulet,48.8443415,2.2773844,21,15060,17,0,3,1689969365
54000593,Longchamp - Place d'Iéna,48.86491723343388,2.2926748171448708,40,16007,3,1,36,1689969146
27362949,Louis Blanc - Jemmapes,48.879330755297346,2.368448562920093,31,10110,2,7,21,1689968919
1057003116,Charles Lecocq - Lecourbe,48.84044,2.294867,30,15131,12,1,15,1689969218
285726279,Quai de Valmy,48.88126951579429,2.368186041712761,26,10037,8,14,3,1689969385
285454061,Square de la rue Pixérécourt,48.8736824,2.3960278,15,20002,3,5,5,1689969262
213686471,Eylau - Trocadéro,48.863354122371,2.2864209115505,24,16014,2,0,21,1689969389
7261,Athènes - Clichy,48.878113787876,2.32956021945824,20,9036,1,0,19,1689969255
291354793,Gare de Lyon - Van Gogh,48.843839785643,2.3704450240357,51,12006,27,23,0,1689969283
213685863,Parc Suzanne Lenglen,48.833250690537874,2.2765403240919113,52,15125,35,0,14,1689969207
653079135,Mazagran - Pierre de Coubertin,48.816218640260445,2.344226874411106,15,13027,3,2,9,1689969267
1057081237,Cimetière d'Issy-les-Moulineaux,48.81769977392539,2.260931208729744,24,21316,0,5,19,1689969074
38319086,Pierre Demours - Laugier,48.8813072,2.294846,37,17029,2,3,30,1689969310
221032834,Metz - Faubourg Saint-Denis,48.870893,2.353521,48,10004,3,7,37,1689969267
653129435,Neuilly - Petit,48.898965361341254,2.29627937078476,16,21118,3,0,12,1689968918
476053320,Ecole Militaire - Place Joffre,48.852060203583,2.3017993569374,26,7111,0,0,25,1689969282
124622630,Pelée - Alphonse Baudin,48.8600265,2.3710541,38,11103,8,1,26,1689969260
96512532,Joseph Sansboeuf - Saint Lazare,48.87531563065266,2.3229019716382027,18,8008,0,1,17,1689969288
362178041,Place Jules Ferry,48.812107928414775,2.325837314128876,28,21203,1,2,25,1689969324
100783424,Censier - Santeuil,48.840658921385234,2.3537524044513702,69,5034,3,3,61,1689969334
210584503,Gare de l'Est - Fidélité,48.874575,2.356796,15,10017,3,3,6,1689969357
422639331,Mairie de Neuilly sur Seine,48.88494728765838,2.2677031159400944,31,22013,4,1,24,1689969027
1057061349,Chancé Milly - Cimetière Communal Sud,48.89687189382465,2.303922325372696,32,21115,1,4,23,1689969357
292871105,Botzaris - Crimée,48.87959698690176,2.3887913337477067,21,19025,0,4,17,1689969410
38280,Saint-Didier - Raymond Poincaré,48.86642312020962,2.285863497192411,17,16009,0,1,15,1689969375
653125838,Cours de l'Ile Seguin - Parc Billancourt,48.82714055843935,2.234234511852265,29,21029,12,4,11,1689969383
129121741,Belleville - Couronnes,48.868831082877,2.3809862136841,50,20039,8,7,35,1689969356
594942659,Gare du Nord - Denain,48.879595787608,2.3544725775719,20,10153,3,1,14,1689969389
404947652,Place Fernand Forest,48.849269143835926,2.2818631678819656,33,15072,13,4,13,1689969403
129142199,Marcel Yol - Jullien,48.82537611802588,2.287235018058929,30,21708,2,0,28,1689969409
42541542,Gare Montparnasse - Edgar Quinet,48.841487851079,2.3233232282801,33,14101,9,21,2,1689969401
27363558,Wurtz - Tolbiac,48.82631195621006,2.344585955142975,28,13048,10,3,14,1689968936
214109662,Hôtel de ville de Fontenay-sous-Bois,48.84949749106274,2.4750164151191716,20,41210,0,1,19,1689969311
653122771,Marc Sangnier - Division Leclerc,48.78599652305309,2.329955510795116,24,42304,19,2,1,1689969372
35147530,Pierre Levée - Fontaine Timbaud,48.86632723374305,2.3711163550615306,23,11109,9,2,11,1689969270
129135654,Victor Cresson - Telles de la Poterie,48.822698842979,2.2686498274964,31,21307,26,3,2,1689969414
101756482,Convention - Vaugirard,48.83767682233156,2.295586926020252,48,15052,39,7,1,1689969412
1057179405,Résistance - Hoche,48.864273423741956,2.435784414410591,29,31021,2,0,27,1689969293
653135400,Paul Vaillant-Couturier - Gare RER,48.80108159069614,2.402097210288048,26,44002,16,3,4,1689969284
213689228,Raffet - Montmorency,48.85258670812,2.2629252456151954,42,16115,0,1,40,1689968962
129079313,Commerce - Letellier,48.84797660373612,2.2966245196598805,44,15123,11,0,32,1689969347
409364001,Ivry - Simone Weil,48.823283932030755,2.3659095168113713,18,13039,1,2,15,1689969030
1057039016,Fessart - Château,48.84245,2.23989,20,21030,13,4,2,1689969258
1057045129,Cimetière de Boulogne-Billancourt,48.830764,2.252024,40,21031,16,0,21,1689969329
1190800638,Ranelagh - Maison de la Radio,48.85293603169479,2.280449643731117,22,16024,6,2,12,1689969210
302725495,Gare SNCF Vanves-Malakoff,48.819002163836444,2.292150005103606,51,21702,1,3,43,1689969403
303102719,Brancion - Lefebvre,48.82900222785569,2.301431038163409,11,15043,1,2,7,1689969266
27363277,Place Saint-Ferdinand,48.87815529789739,2.288518047864942,38,17039,0,1,35,1689969250
303452950,Hôtel de Ville de Fontenay-aux-Roses,48.790844603480856,2.2871455930319455,34,22604,2,2,27,1689969384
54000617,Docteurs Déjérine - Pte de Montreuil,48.85398448133697,2.41208288897222,20,20009,0,1,19,1689968959
37921892,Vinaigriers - Magenta,48.8731167,2.3593052,25,10012,3,3,18,1689969378
653131074,Vanne - Général de Gaulle,48.815007,2.328318,25,21213,0,1,24,1689969052
308082350,Malakoff - Place de la Porte Maillot,48.876733496637506,2.2834577411413193,31,16101,0,0,16,1689968883
213691137,Carnot - Général Lanrezac,48.875443870736,2.2938242935036,30,17033,0,0,30,1526880629
653126035,Vanne - Saussaies,48.786404,2.338848,20,42305,2,7,9,1689969413
210745258,Jean-Pierre Timbaud - Vaucouleurs,48.867937,2.377885,47,11032,6,16,22,1689969209
653080383,Bruneseau - Quai d'Ivry,48.82494563758295,2.388566136360169,48,13121,32,5,6,1689969249
457834134,André Maurois - Joseph et Marie Hackin,48.8778983,2.2789591,29,16003,2,1,23,1689969346
653123610,Pierre Lefaucheux - Traversière,48.82435208303827,2.2417913004755974,35,21028,5,3,27,1689968853
6295,Pontoise - La Tournelle,48.850458009188,2.3524542754922,23,5107,16,4,2,1689969365
36473,Cadet - La Fayette,48.875601632672,2.3435704037547,0,9101,0,0,0,1665409962
54000562,Square Alban Satragne,48.875388227727,2.3559567333359,30,10018,6,1,19,1689969163
54000615,Buzenval - Avron,48.851617204998654,2.401513597307666,50,20007,8,5,36,1689969337
135806005,Mairie de Romainville,48.885109,2.435679,17,32301,2,3,11,1689969414
66491395,Daumesnil - Hébrard,48.8429,2.38474,40,12043,34,1,1,1689969397
559980654,George V - Christophe Colomb,48.87046,2.30104,24,8549,0,1,22,1689969317
102326776,Jardin de l'Hospice Debrousse,48.861451061938,2.40568600595,23,20108,0,0,22,1689969394
653135378,Amaury Duval - Gabriel Péri,48.81718759671675,2.323841750621796,36,21219,0,1,34,1689969185
210751059,Hôpital - Campo-Formio,48.835405,2.358218,16,13011,0,4,11,1689969328
1057184567,Paul Signac - Aristide Briand,48.86950262156371,2.4502260982990265,35,31025,1,1,33,1689969298
402212574,Charles de Gaulle - Graviers,48.883151759186,2.2648814320564,0,22008,0,0,0,1670219436
34235349,Jean Calvin - Tournefort,48.84158856925782,2.348489575088024,28,5014,2,1,25,1689969151
1057203651,Stade de France,48.919141953558054,2.362065576016903,44,32011,0,0,42,1689969006
453172172,Porte d'Italie,48.817161987718954,2.360236309468746,13,13033,0,3,10,1689969268
478385490,Charles Gide - Fort de Bicêtre ,48.8071937956922,2.353984415531159,30,42701,1,2,26,1689969299
213706622,Vitruve - Davout,48.86053161154489,2.4091592812626543,23,20122,1,0,22,1689969229
213686749,Place de la Porte de Passy,48.857341095470794,2.2644165538827115,36,16020,4,1,31,1689968836
311552027,Temple - Charlot,48.865709343796,2.3652737250724,45,11038,0,4,38,1689969365
82572699,Damrémont - Ordener,48.893400392981874,2.336266523912805,30,18027,2,3,23,1689969334
1057302263,Place Nationale - Château-des-Rentiers,48.829268,2.365212,18,13126,7,0,10,1689969122
27269170,Quai aux Fleurs - Pont Saint-Louis,48.85291595620935,2.352195717394352,21,4003,10,6,1,1689969411
82550543,Place de Barcelone - Mirabeau,48.847623027364,2.2735664248466,55,16030,20,12,21,1689969398
82375611,Batignolles - Beudant,48.88216401466375,2.319852970540523,44,8020,2,2,39,1689968851
443402852,Place de Lévis,48.883546851533254,2.3131933808326726,48,17015,0,0,46,1689969412
1062162270,Théâtre de La Garenne,48.905768309295276,2.2353921022349748,20,22501,6,1,13,1689969387
38192,La Motte-Picquet - Grenelle,48.84858321339195,2.299347817897797,34,15023,7,0,26,1689969406
84958519,Arcole - Notre-Dame,48.85388354132773,2.3493797332048416,31,4001,0,2,28,1689969359
213952930,Proudhon - Président Wilson,48.906442763495,2.3584905266762,30,32001,0,0,30,1689968919
35101194,Place de l'Insurrection d'Août 1944 ,48.81477852751594,2.398074567317963,30,42003,17,9,2,1689969346
1057319366,Quai de la Gare - Pont de Bercy,48.83730787972,2.3740861260598,30,13128,18,4,6,1689969415
458086607,Président Wilson - Baudin,48.89826887103676,2.2849336266517644,28,23003,0,6,20,1689969340
101491821,Jean Moulin - Place Victor et Hélène Basch,48.82764910241,2.3261967301369,41,14010,2,3,33,1689969362
653081846,Jourdan - Monticelli,48.822032,2.329095,30,14131,0,2,26,1689969376
213689815,Porte d'Asnières,48.89035817610495,2.3036286234855656,36,17023,0,1,32,1689969241
443198808,Gaston Tessier - Rosa Parks RER,48.8963765,2.3743692,37,19108,2,0,35,1689969132
620676855,Camille Groult - Guy Môquet,48.787482746521306,2.3976725712418556,22,44007,10,4,8,1689968929
98187918,Lobau - Hôtel de Ville,48.8562118,2.3532536,60,4016,45,7,4,1689969411
13191324,Assas - Luxembourg,48.84373446877937,2.333428381875887,33,6008,4,1,28,1689969323
210738704,Mazagran - Bonne Nouvelle,48.870047123655,2.3511248454452,25,10105,6,3,13,1689969029
82565383,Jacques Kellner - Saint-Ouen,48.895809485802886,2.327897409164145,45,17003,1,8,33,1689969056
102745622,Raspail - Albert Schweitzer,48.81031545,2.34395871,28,42501,18,3,6,1689969359
213999554,Jean Jaurès - Ouvrières Pivéreuses,48.91042343752563,2.399576604366303,20,35001,1,4,15,1689968946
213677219,Brillat-Savarin - Küss,48.822203,2.350422,21,13109,8,1,12,1689969374
6294,Marché aux fleurs,48.85525811539143,2.3473754525184636,23,4002,12,5,6,1689969401
85155919,Estienne d'Orves - Henri Ginoux,48.815388220397274,2.320886790760933,31,21204,4,4,21,1689969328
1062238429,Place de l'Europe - Quai de Bercy,48.82529858840266,2.3945679143071175,17,42209,11,3,2,1689969196
369011098,Paris - Laitières,48.84630274151258,2.4207553267478947,22,43001,4,3,13,1689969140
102343591,Louis Pasteur - Albert Petit,48.796261,2.317289,31,22206,3,7,20,1689969278
27415150,Bobillot - Paulin Mery,48.829899841747384,2.3543356766748507,23,13106,5,9,7,1689969319
7247,Charonne - Pierre Bayle,48.858445054262,2.3903981223891,23,11021,1,2,19,1689969366
653134004,Louis Rolland - République,48.81710889740748,2.3193106434955717,26,21217,1,1,23,1689969300
27415246,Javel - André Citroën,48.846276485475,2.2786368057131767,45,15064,13,4,25,1689969307
389788858,Emeriau - Beaugrenelle,48.84791249714942,2.2843059897422795,74,15030,54,7,11,1689969413
1056947780,Faubourg Poissonnière - Dunkerque,48.880883445404436,2.349934279918671,30,9114,0,1,28,1689969370
38327,Victor Hugo - La Pompe,48.86795222470859,2.28146318346262,41,16011,5,12,15,1689968970
100925033,Gare de Lyon - Chalon,48.845666194202,2.3741452395916,45,12007,37,5,1,1689969320
109609241,Colmar - Victor Hugo,48.88652251096166,2.173960916697979,32,25001,14,4,14,1689969287
82562496,Benjamin Delessert - Jean Lolive,48.89392043619345,2.417981922626496,21,35007,7,3,10,1689969134
235197110,Place de la Gare,48.80253358011283,2.4275037646293645,46,47001,36,2,4,1689969317
417088374,Place Mongolfier,48.815160030060376,2.4592879414558415,39,44101,24,6,3,1689969282
439750210,Italie - Jardin Joan Miro,48.81990914045756,2.3592948541045193,26,13032,0,4,20,1689969162
42720305,Monceau - Malesherbes ,48.8795079,2.3145456,38,8037,3,0,34,1689968916
653205656,Gare de la Garenne-Colombes,48.909752,2.239145,28,27004,3,0,25,1689969349
653147618,Lucien Lanternier - Le Luth,48.93159430558871,2.2889783978462224,27,22303,11,10,4,1689969410
417623119,Mairie de quartier du Plateau - Mont-Valérien,48.8799933,2.2072437,20,92001,0,6,14,1689968866
82584215,Place Lafayette,48.829654975522,2.2638675570488,62,21306,10,2,48,1689969373
54000632,Paul Vaillant-Couturier - Victor Hugo,48.89819702263572,2.293848017974069,36,23004,0,3,32,1689969216
428088564,La Jarry - Place Diderot,48.849726940367326,2.452013790607453,25,43010,1,2,21,1689968926
365886904,Berthier - Place Stuart Merril,48.885927922355044,2.2933450341224675,37,17107,3,2,32,1689969410
213682190,Place Jacques et Thérèse Tréfouël,48.842726498317,2.3125657439232,43,15005,2,3,36,1689969249
653083263,Lucien Bossoutrot - Général Martial Vallin,48.836956046311,2.2741072252393,39,15057,0,2,36,1689969288
85015750,Pergolèse - Malakoff,48.87521088779225,2.2842781618237495,38,16002,0,0,38,1689969114
27064639,Vaugirard - Pasteur,48.84040868803496,2.3154367133975033,21,15004,0,2,19,1689969365
102722579,Voltaire - Anatole France,48.891999360256904,2.284262739121914,27,23010,3,7,15,1689969370
75641607,Blaise-Desgoffe - Vaugirard,48.846128877747,2.3242672160268,32,6027,4,5,21,1689969349
39151458,Goutte d'or - Barbès,48.885124323627,2.3496962338686,20,18007,1,3,13,1689969352
221036108,Charonne - Bureau,48.854176,2.396093,47,11017,2,2,42,1689969151
468354634,Quai de l'Oise - Aisne,48.8906231,2.3833701,30,19128,13,15,1,1689969223
379063990,Place du 14 Juillet,48.8192669595252,2.30119988322258,22,22408,0,1,20,1689968966
213692227,Square Louise Michel,48.884687354509,2.3441386967897,36,18006,1,1,33,1689969013
653137566,Mairie de Clamart,48.800612,2.262151,33,21401,0,4,27,1689969171
213674686,Place Jeanne d'Arc,48.829575,2.369126,36,13044,1,2,32,1689969382
38522,Douai - Pierre Fontaine,48.88229101148092,2.33324121683836,25,9027,1,8,12,1689969401
488889101,Bessières - Porte de Clichy,48.89611762451474,2.31790903955698,33,17108,2,1,29,1689969366
488800137,Portugais - Kléber,48.8712148,2.2937349,26,16001,0,1,25,1689969391
266422568,Place Edmond Michelet,48.860134890542,2.3500636965036,23,4020,11,7,3,1689969338
488872892,Emile Zola - Fondary,48.847051143113745,2.2953405976295476,42,15022,19,0,20,1689969403
129016495,Taitbout - La Fayette,48.87332988919973,2.3352625966072087,53,9024,0,1,48,1689969345
1057730786,Halles - Bourdonnais,48.860448992575,2.3460162431002,20,1021,6,4,9,1689969332
131094294,Charles Tillon - Cimetière Communal,48.91844023641836,2.3935630917549138,30,33015,1,5,19,1689969405
494183852,La Motte-Picquet - La Tour Maubourg,48.856926701847,2.3096215831203,40,7017,12,1,26,1689969287
1057335613,Quai du Président Roosevelt - Pont Aval,48.8343883676388,2.2656820714473724,30,15311,6,2,21,1689969020
491687415,Delizy - Louis Nadot,48.896212845581346,2.4094578623771667,22,35006,9,4,6,1689969356
653083675,Maréchal Joffre - Verdun,48.85385,2.470307,20,41205,0,0,19,1689969109
39202840,Rochechouart - Martyrs,48.882193779572,2.3405495658517,20,18041,3,10,6,1689969189
653141822,Île de la Jatte,48.894036161302104,2.2666339203715324,23,22015,10,3,9,1689969352
488980540,Saint-Mandé - Fabre d'Eglantine,48.8453579,2.3965022,34,12018,5,0,28,1689969413
54000599,Lemercier - Cardinet,48.890097168851746,2.317377626895905,24,17111,1,1,22,1689969207
1057221951,Balzac - Olympes de Gouges,48.77850332486751,2.4006786569952965,28,44016,11,8,3,1689969233
653137567,Place Saint-Just,48.790379518724265,2.3895226791501045,22,44005,11,2,5,1689969362
54000600,Toqueville - Cardinet,48.88490187110713,2.3109393194317818,33,17119,0,5,27,1689969286
82455731,Cambronne - Villa Croix Nivert,48.845847561366,2.3017574474216,62,15011,21,1,40,1689969413
15212034,Gérando - Rochechouart,48.88294340845,2.3464846238494,21,9004,0,0,21,1689969143
559595472,Suffren - Champ de Mars,48.8547194,2.2952168,23,15071,8,1,14,1689969280
1057399900,Placette Grégoire Collas,48.94342014002797,2.2487476095557213,25,51002,1,9,12,1689969407
210395439,Centre Georges Pompidou,48.861419,2.352581,26,4021,7,4,14,1689969417
491932748,Porte des Lilas - Faidherbe,48.87861855668978,2.4120327830314636,39,32601,1,2,35,1689969351
1057329581,Square Bela Bartok,48.85120156830401,2.2846536710858345,24,15102,17,1,3,1689969416
1057378487,Fort d'Aubervilliers,48.91502382370325,2.4035281687974925,22,33016,3,0,17,1689969339
1057737444,Place Ginette Hamelin,48.837853,2.382064,51,12026,36,9,5,1689969364
1314450240,Gare du Stade,48.9312676,2.2603778,20,27005,9,4,7,1689969248
2515636592,Mstislav Rostropovitch - Berthier,48.892120821173975,2.309234105050564,18,17123,5,10,2,1689969341
653139063,Pont de Suresnes,48.867415092322,2.2258946679617,24,21501,0,0,24,1545401930
82336035,Saint-Germain - Ciseaux,48.853305277595,2.3344654618827,18,6012,3,3,8,1689969324
255322397,Auguste Blanqui - Corvisart,48.8300989,2.3502726,26,13009,3,4,18,1689969330
653087180,Clichy - Douai,48.88411831886975,2.3287287354469304,32,18044,3,2,26,1689969418
1057091571,Esplanade du Foncet - Camille Desmoulins,48.827090233494964,2.2606857866048813,28,21319,16,3,8,1689969323
210582231,Londres - Place d'Estienne d'Orves,48.876693805756986,2.3305362090468407,25,9102,0,0,24,1689969412
312870435,Dunkerque - Trudaine,48.88215166773376,2.3463253676891327,16,9006,0,1,14,1689969414
1057354004,Chemin de Bretagne,48.825147,2.25936,29,21314,13,5,10,1689969324
129106450,Joseph Dijon - Ornano,48.89374453351521,2.3476678133010864,37,18030,4,3,26,1689969393
1057405802,Place Nelson Mandela,48.897874318180556,2.2182820737361912,30,92006,1,1,28,1689969280
27414544,Place Monge,48.842761803051,2.3524079471827,21,5024,2,7,11,1689969248
213894629,Square Denise Buisson,48.8562322730982,2.426436245441437,45,31005,4,2,39,1689969238
129059516,Picpus - Louis Braille,48.839988788912,2.4005256685521,44,12038,3,6,31,1689969345
100923502,Crozatier - Faubourg Saint-Antoine,48.850440013405,2.378901366211,42,12005,29,8,3,1689969405
1227051850,Glacière - Soeur Catherine Marie,48.829522989420596,2.343570403754711,40,13516,2,2,34,1689969217
1057748427,Rottembourg - Général Michel Bizot,48.83787825992554,2.4044052511453633,43,12155,23,1,15,1689969251
1015246367,Champs-Elysees - Bassano,48.871811807816,2.300238981843,25,8116,0,0,25,1613934558
284787594,Place d'Italie - Vincent Auriol,48.831481874467,2.3567550292319,40,13010,3,9,27,1689969409
54000560,Geoffroy - Marie,48.873781940593325,2.344513876337893,20,9011,2,6,11,1689969350
1062742831,Place Joffre - Frédéric le Play,48.853754486938,2.3044242337346,38,7109,7,1,30,1689969151
101017160,Place de Rungis,48.82245594764965,2.347382729482953,32,13025,21,3,8,1689969388
100933541,Vivaldi - Antoine-Julien Hénard,48.841923663276546,2.389728979467376,27,12028,5,0,20,1689969303
36391,Godot de Mauroy - Madeleine,48.869789,2.326347,22,9034,1,2,17,1689969148
100934967,Madagascar - Meuniers,48.83460464474706,2.3970650508999825,33,12035,26,6,1,1689969361
15309045,Marché Saint-Quentin,48.877356057652,2.3545114456374,15,10021,3,1,9,1689969117
100769544,Harpe - Saint-Germain,48.851518815017,2.3436703160405,45,5001,6,3,35,1689969308
1062783107,Buffon - Jardin des Plantes,48.842668466104875,2.3618587106466293,30,5115,25,5,0,1689969388
653086121,Louis Xavier de Ricard - Ancienne Mairie,48.84629899065091,2.472420372068882,34,41211,0,6,28,1689969367
653139897,Lebrun - Colonel Fabien ,48.78266870733145,2.381317801773548,27,44011,0,4,23,1689969361
285001735,Vivienne - Montmartre,48.871347597383,2.3414588347077,39,2108,3,1,33,1689969017
101011685,Charenton - Prague,48.848175129981,2.3763584494312,26,12101,16,6,0,1689969404
27415547,Square Etienne Jarousse,48.82485182597129,2.2925933450460434,25,21707,1,6,17,1689969401
54000543,Cloître Saint-Merri - Renard,48.858835448898,2.3518279194832,32,4019,26,3,3,1689969396
1057765913,Hôpital Necker,48.846043490118454,2.313245013356209,40,15129,3,1,34,1689969006
1062704564,Bourg l'Abbé - Saint-Martin,48.86393331949257,2.352406270802021,42,3102,13,4,23,1689969399
221043930,Bagnolet - Orteaux,48.85708641027236,2.3984125256538396,36,20015,2,2,30,1689969282
1057234527,Gare d'Argenteuil,48.947022436806705,2.256898172199726,40,51001,8,17,15,1689969296
49498164,Mairie du 8ème ,48.877932,2.318264,14,8027,0,0,14,1689969377
76121343,Abbé Groult - Convention,48.83596927866069,2.302064039509349,12,15039,1,0,11,1689969409
1057072168,Jules Guesdes - Général de Gaulle,48.81930581291959,2.278934195637703,24,21315,0,11,11,1689969361
1062685145,Bibliothèque Nationale - Richelieu,48.868288993515,2.3380893096328,17,2112,2,2,12,1689969174
1056715831,Marché Saint-Germain,48.85165625855281,2.335500307381153,21,6022,13,7,1,1689969391
101742129,Cherche-Midi - Hôpital Necker,48.84461063309956,2.317914068698883,38,15006,6,8,22,1689969344
1057360420,Place Aimé Césaire,48.783194713067815,2.2429127991199493,27,21402,0,3,24,1689969343
42907187,Richard Lenoir - Voltaire,48.86164273878,2.3727491497993,25,11011,4,3,17,1689969414
214119792,Gare RER - Malleret-Joinville,48.802936,2.42531,20,41403,12,1,6,1689969283
13912564,Bruant - Vincent Auriol,48.834848452929,2.3668264996271,25,13018,0,1,23,1689969072
1057366813,Hôtel de Ville de Sèvres,48.824363561288756,2.2131047397851944,32,23102,9,5,18,1689969203
37504995,Jean Monnet - Iles,48.823393984057304,2.2497073194874866,32,21303,17,2,11,1689969416
131908132,Parc Eli Lotar,48.91844993053703,2.3727085813879967,20,33014,6,3,11,1689969399
49117995,Condorcet - Turgot,48.87985155789093,2.345232367515564,20,9007,1,0,18,1689969058
125811629,Leredde - Tolbiac,48.82887629664,2.3744382709265,44,13052,28,4,8,1689969409
102307005,Villiers - Batignolles,48.88125253846116,2.31653843075037,23,17024,5,1,15,1689969417
1057753858,Place Charles Michels,48.846401,2.28502,37,15127,31,1,4,1689969309
452341449,Choisy - Tolbiac,48.82591155587,2.3602393269539,26,13035,1,7,7,1689969402
54000590,Croix Nivert - Square Saint-Lambert,48.8430515215905,2.295200452208519,47,15036,27,11,9,1689969337
27359295,Benoît Frachon - République,48.85230729014318,2.415605485439301,30,20105,0,0,27,1689969017
81212212,Jean Jaurès - Jules Jacquemin,48.88433053604843,2.4082902455152104,24,33103,1,1,20,1689969370
54000587,Mairie du 14ème,48.83254578123,2.3254923149943,32,14032,1,2,28,1689969272
653087914,Marne - Charles de Gaulle,48.815071719544434,2.4121668934822087,27,41401,12,14,1,1689969367
41219552,Saint-Benoît - Jacob,48.85545136013941,2.3334722220897675,23,6002,3,1,18,1689969412
101738550,Didot - Place de Moro-Giafferi,48.8337,2.3215,22,14031,0,2,19,1689969315
54000622,Davout - Volga,48.852919679957296,2.410522909779111,28,20044,0,3,25,1689969334
82339935,Porte de la Muette,48.86302317841182,2.2687188170157406,36,16019,0,0,35,1689969369
27414713,Landy - Heurtault,48.915096534520316,2.375951372087002,30,33012,11,10,7,1689969168
54000564,Paradis - Hauteville,48.874999954666755,2.3522757401923404,31,10019,3,2,23,1689969243
27363337,Bréguet - Sabin,48.856931678257,2.3706749462105,33,11033,16,15,1,1689969324
100967498,Stalingrad - Rigollots,48.84997403844251,2.45557576417923,51,41203,3,10,34,1689969294
6298,Gare du Nord - Saint-Vincent de Paul,48.880955741648,2.3524305148385,24,10033,1,0,22,1689969377
43247025,Jardins d'Eole,48.8869703,2.3668488,20,18039,0,2,15,1689969401
70903158,Raymond Poincaré - Place Victor Hugo,48.870306124369975,2.285074541420228,25,16005,1,1,20,1689969379
37879071,Paul Bodin - Clichy,48.89239614618928,2.317142598330975,34,17009,2,2,29,1689969357
58311330,Place des Droits de l'Enfant,48.8274804,2.3319217,24,14011,0,2,20,1689969385
82332239,Ecoles - Carmes,48.848904447989405,2.3473486304283147,36,5007,1,2,32,1689969207
54000619,Porte de Bagnolet,48.864707139122984,2.408344637349607,33,20022,1,0,32,1689969303
265201872,Bourdon - Pont Morland,48.8478103,2.3659356,52,4006,34,15,2,1689969292
101008598,Reuilly - Place Felix Eboue,48.84030274499962,2.394630398715453,42,12036,3,4,33,1689969416
75525462,Plantes - Moulin Vert,48.83005755305626,2.3232302069664006,45,14026,2,3,40,1689968970
15462861,Crevaux - Bugeaud,48.870809428669546,2.281149007691853,31,16105,0,1,27,1689969261
95845524,Cité Riverin - Château d'Eau,48.870702423554306,2.358739863900845,18,10008,6,2,6,1689969399
38407,Flandrin - Longchamp,48.86877849178477,2.274354539176829,42,16012,4,7,28,1689969385
82554449,Porte Molitor,48.84524763511433,2.2569015249609947,60,16036,10,2,48,1689969392
39535340,Charles Frérot - Albert Guilpin,48.8155839183714,2.3505029082298283,30,42505,12,7,8,1689969356
1062797394,Place de la Madeleine - Royale,48.869228052648,2.324421107769,26,8117,2,0,23,1689969279
66491391,Claude Vellefaux - Hôpital Saint-Louis,48.872859139003,2.3700717069851,32,10032,4,1,26,1689969304
54000570,Place de la Nation - Picpus,48.846821681548,2.4001130461693,36,12015,7,8,19,1689969175
1062256852,Maxime Gorki - Louis Aragon,48.78909814728443,2.368387877941132,20,48004,2,4,14,1689969356
1057373549,Gare RER les Grésillons,48.919898633572764,2.31458459136273,22,26004,8,5,9,1689969353
653089942,Poissonniers - Championnet,48.89543299733937,2.3530178144574165,28,18139,2,2,17,1689969414
201923447,Murat - Porte de Saint-Cloud,48.83750862621299,2.2577651962637906,38,16042,8,8,17,1689969179
128841079,Cambon - Rivoli,48.866143390992,2.3251800647137,40,1020,0,2,36,1689969319
220504949,Grande Truanderie - Saint-Denis,48.8626302,2.3498075,33,1006,22,4,6,1689969324
41464928,Sèvres - Lecourbe,48.8447677,2.3110086,62,15008,7,1,53,1689969322
27296946,Square Claude Bernard,48.89876016219984,2.375325746834278,30,19110,2,1,27,1689969344
15308712,Jules Vallès - Charonne,48.85428437993525,2.384767457842827,23,11112,1,0,20,1689969328
653143563,Henri Ravera - Gabriel Péri,48.79722273833844,2.302115857601166,30,22201,1,2,23,1689969355
9931940126,Diane Arbus,48.898800717199,2.3524022474885,38,18202,13,3,19,1689969389
443153677,Perle - Vieille du Temple,48.8601346,2.3611206,36,3008,5,0,29,1689969213
38060,Gare Montparnasse - Arrivée,48.843827994315,2.3225811123848,43,15001,27,10,2,1689969346
7295,Chevreuse - Montparnasse,48.841739161231,2.3315522167367,15,6010,1,7,6,1689969155
66505510,Epée de Bois - Mouffetard,48.841508690388835,2.350066713988781,63,5015,2,1,59,1689969149
1062245074,Roger Salengro - Général de Gaulle,48.820029010376956,2.4846760556101803,27,45002,23,2,2,1689969409
1057758764,Cadix - Hameau,48.8340107632249,2.289516180753708,37,15128,15,8,13,1689969351
653144717,Camille Risch - Paul Armangot,48.774703,2.373685,25,44014,1,8,15,1689968892
42275164,Reuilly - Daumesnil,48.8395385,2.3972516,36,12037,0,6,30,1689969411
125623876,Phalsbourg - Villiers,48.88242307900951,2.3090453445911407,20,17019,1,1,18,1689969358
85031184,Molitor - Michel-Ange,48.845182081538034,2.26211277356597,52,16037,11,4,37,1689969380
97824043,Charentonneau - Maisons Alfort,48.809932980484355,2.443288456496946,20,47003,14,3,3,1689969098
66491379,Place des Abbesses,48.884542726149725,2.3386867716908455,12,18004,1,3,6,1689969414
39169029,Sorbier - Ménilmontant,48.86854239566069,2.3897721245884895,24,20034,1,6,16,1689969345
35600927,Mairie du 16ème,48.863936848471994,2.2765953093767166,35,16013,0,0,33,1689969285
100868590,Cité Vaneau,48.8542210666207,2.319614924490452,26,7012,3,0,21,1689969214
30730,Place de la Nation - Charonne,48.848364667777,2.3997623859813,36,20001,5,2,27,1689969416
54000616,Pyrénées - Avron,48.853246898211985,2.405871044529538,32,20008,1,3,27,1689969215
27364642,Maine - Liancourt,48.835064363954,2.323731449974,27,14103,4,4,19,1689968841
66491381,Leibniz - Jean Dollfus,48.896328348515986,2.333390423834684,32,18034,8,2,21,1689969183
49094984,Herschel - Observatoire,48.84342376221923,2.3376645147800446,37,6104,2,0,33,1689969381
77773,Gare de Reuilly - Picpus,48.84267354116789,2.3972943797707558,28,12019,7,2,15,1689969083
15463487,Pergolèse - Marbeau,48.87356870686902,2.281512522529856,27,16102,3,1,17,1689969407
52518,Louis Lumière.,48.86216198070008,2.41112578185621,22,20104,0,0,22,1689969268
1062874070,Jourdan - Cité Universitaire,48.819897343156676,2.3397007964124366,39,14135,0,3,35,1689969306
82574198,Mairie d'Issy,48.8237677924683,2.27231115102768,41,21309,31,2,4,1689969398
54000554,Gare Saint-Lazare - Stockholm,48.877127316667654,2.322417162358761,32,8110,0,1,28,1689969164
27415389,Gambetta - Père Lachaise,48.864295696165875,2.398228667282044,29,20024,0,5,24,1689969257
66491367,Beaubourg - Michel-le-Comte,48.862534941806,2.3543103039265,17,3010,4,4,5,1689969412
1062802530,Niger - Soult,48.84369906369085,2.410361237220498,24,12156,5,5,10,1689969336
653091206,Porte de Clignancourt - Ney,48.899641123987095,2.344321422278881,40,18140,5,10,22,1689969411
27414902,Louis Blanc - La Chapelle,48.884008964514,2.3599335551262,21,10034,0,0,20,1689969406
653042678,Quai de Béthune - Pont de la Tournelle,48.85097433194032,2.356307208538055,25,4108,8,9,6,1689969407
75345531,Turbigo - Française,48.86358858111446,2.3477794602513313,16,1007,2,7,3,1689969377
66505516,Cordelières - Arago,48.83548071896613,2.348572461702221,46,13005,12,7,25,1689969351
49341735,Centquatre,48.88933353845543,2.3707854375243187,42,19002,3,5,34,1689969153
15309674,Square Montholon,48.876620377545024,2.3457641154527664,21,9009,1,1,17,1689969248
129023855,Parme - Clichy,48.88126642422664,2.328197093450571,24,9037,0,0,24,1689968929
2515672078,Petit - Georges Thill,48.88603131999171,2.3895753175020222,23,19201,6,4,12,1689969417
35317080,Emile Reynaud - Porte de la Villette ,48.90098953630053,2.3887022584676743,22,19010,5,5,11,1689969099
82396562,Mairie du 10ème,48.872089449907,2.3575825989246,19,10009,2,6,7,1689969367
653146273,Chausson - Gabriel Péri,48.921891003481115,2.2952306270599365,22,22301,7,5,9,1689969353
1062882947,Bargue -  Dutot,48.837884,2.308876,21,15132,1,0,19,1689969416
653091677,Place de l'Europe - Alfortville,48.78913702405837,2.4284800887107854,24,41405,16,6,2,1689969247
35472299,Pyrénées - Plaine,48.85026702458,2.4062821269035,12,20006,0,2,10,1689968861
213687475,Traktir - Foch,48.872755334614,2.2915497802487,22,16103,1,0,20,1689968882
1805255023,Sèvres - Général Leclerc,48.83012155905476,2.231426239013672,30,21026,3,2,24,1689969398
266963426,Beaumarchais - Saint-Gilles,48.8580378,2.3679352,51,3001,6,6,39,1689969323
1057207064,Saint-Denis - Université,48.94563430946964,2.3638297989964485,24,32013,11,0,12,1689969253
338824395,Bourse du Travail,48.868976638826,2.3623438552022,17,10011,3,1,9,1689969389
1062982815,Gare de Bellevue,48.8192404685572,2.2295309230685234,20,21953,2,1,16,1689968926
128890772,Bosquet - Saint-Dominique,48.85865170952645,2.303716580234576,28,7021,5,2,20,1689969400
66489651,Louis le Grand - Italiens,48.870508937204,2.3340544619393,33,2015,1,2,30,1689969362
1237624420,Maurice d'Ocagne - General Maudhuy,48.82414282524159,2.3158789426088333,30,14137,8,7,15,1689969387
27415179,Sarrette - Général Leclerc,48.825030852925,2.3264128693982,22,14019,1,4,16,1689969394
128932790,Arsène Houssaye - Champs-Elysées,48.873409276267,2.2977904602885,29,8028,1,1,26,1689969227
129152818,Place de la Fraternité,48.85716405838368,2.422847449779511,22,31709,5,6,5,1689969342
7268,Charenton - Jardiniers,48.833821772923,2.394692664106,0,12112,0,0,0,1689358079
100760396,Turbigo - Réaumur,48.86557404753054,2.3564198613166814,31,3011,13,8,9,1689969407
210585225,Dunkerque - Alsace,48.879355,2.358379,20,10027,2,2,12,1689969366
312165511,Faubourg Du Temple - Republique,48.867872484749,2.3648982158072,38,11037,6,4,27,1689969397
27313492,Petites Ecuries - Faubourg Saint-Denis,48.87287120589831,2.3542150855064397,28,10006,11,11,6,1689969409
262607058,Charles de Gaulle - Plateau de Vanves,48.82233088973263,2.298571803412886,33,22401,3,1,26,1689969134
